latitude,longitude,altitude(m),ultrasonicHeight(m),speed(mps),distance(m),max_altitude(m),max_ascent(m),max_speed(mps),max_distance(m),time(millisecond),datetime(utc),datetime(local),satellites,pressure(Pa),temperature(F),voltage(v),home_latitude,home_longitude,velocityX(mps),velocityY(mps),velocityZ(mps),pitch(deg),roll(deg),yaw(deg),powerlevel,isflying,istakingphoto,remainPowerPercent,remainLifePercent,currentCurrent,currentElectricity,currentVoltage,batteryTemperature,dischargeCount,flightmode,isMotorsOn,isTakingVideo,Rc_elevator,Rc_aileron,Rc_throttle,Rc_rudder,Rc_gyro,timestamp,Battery_Cell1,Battery_Cell2,Battery_Cell3,Battery_Cell4,Battery_Cell5,Battery_Cell6,Dronetype,AppVersion,Planename,FlyControllerSerialNumber,RemoteSerialNumber,BatterySerialNumber,CENTER_BATTERY.productDate,CENTER_BATTERY.serialNo,CENTER_BATTERY.fullCapacity,CENTER_BATTERY.productDateRaw,pitchRaw,rollRaw,yawRaw,gimbalPitchRaw,gimbalRollRaw,gimbalYawRaw,flyState,altitudeRaw,speedRaw,distanceRaw,velocityXRaw,velocityYRaw,velocityZRaw,data_reuse,App_Tip,App_Warning,downlinkSignalQuality,uplinkSignalQuality,transmissionChannel,rcModeSwitch,rcHome,rcPause,rcTransform,rcJoystickMode,appMode,FlyControllerSerialNumber_legacy,RemoteSerialNumber_legacy,BatterySerialNumber_legacy,Battery2SerialNumber,frontAvoidDist,backAvoidDist,isBrakingToAvoid
51.999699,-0.454959,1.60,1.70,2.90,0.27,1.60,1.60,2.90,0.27,0,2021-08-11 16:59:07.534,2021-08-11 17:59:07.534,16,0,0,16.768,51.999699,-0.454963,0.10,0.00,-2.90,-0.10,-3.40,-10.90,0,1,0,93,98,-1468,4084,16768,3011.00,11,P-GPS,1,0,0,0,510,0,0,1628701147534,4186,4189,4191,4187,0,0,4,Litchi_4.18.0-g,Airspeed Phantom 3 Pro,03Z1361171,078JBS7306,6171163421965,2016-08-24,2187,4392,18712,1.00,-34.00,-109.00,0.00,0.00,-107.00,6,16.00,29.02,2.74,1.00,0.00,-29.00,0,,,100,100,19,2,0,0,0,2,0,,,,null,0.0,0.0,-1
51.999699,-0.454959,1.90,2.00,3.10,0.28,1.90,1.90,3.10,0.28,97,2021-08-11 16:59:07.632,2021-08-11 17:59:07.631,16,0,0,16.768,51.999699,-0.454963,0.00,0.00,-3.10,0.70,-1.80,-11.10,0,1,0,93,98,-1468,4084,16768,3011.00,11,P-GPS,1,0,0,0,452,0,0,1628701147631,4186,4189,4191,4187,0,0,4,,,,,,,0,0,0,-7.00,-18.00,-111.00,0.00,0.00,-107.00,6,19.00,31.00,2.84,0.00,0.00,-31.00,0,,,100,100,19,2,0,0,0,2,0,,,,,0.0,0.0,-1
51.999699,-0.454959,2.30,2.30,3.00,0.28,2.30,2.30,3.10,0.28,199,2021-08-11 16:59:07.733,2021-08-11 17:59:07.733,16,0,0,16.768,51.999699,-0.454963,0.00,0.00,-3.00,1.40,-1.30,-11.00,0,1,0,93,98,-1468,4084,16768,3011.00,11,P-GPS,1,0,0,0,460,0,0,1628701147733,4186,4189,4191,4187,0,0,4,,,,,,,0,0,0,-14.00,-13.00,-110.00,0.00,0.00,-107.00,6,23.00,30.00,2.82,0.00,0.00,-30.00,0,,,100,100,19,2,0,0,0,2,0,,,,,0.0,0.0,-1
51.999699,-0.454959,2.60,2.60,3.00,0.29,2.60,2.60,3.10,0.29,306,2021-08-11 16:59:07.841,2021-08-11 17:59:07.841,15,0,0,16.470,51.999699,-0.454963,0.00,0.00,-2.90,1.80,-1.30,-10.80,0,1,0,93,98,-3955,4084,16470,3011.00,11,P-GPS,1,0,0,0,444,0,0,1628701147840,4186,4189,4191,4187,0,0,4,,,,,,,0,0,0,-18.00,-13.00,-108.00,0.00,0.00,-107.00,6,26.00,30.00,2.86,0.00,0.00,-29.00,0,,,100,100,19,2,0,0,0,2,0,,,,,0.0,0.0,-1
51.999699,-0.454959,2.90,2.90,2.90,0.28,2.90,2.90,3.10,0.29,439,2021-08-11 16:59:07.973,2021-08-11 17:59:07.973,15,0,0,16.470,51.999699,-0.454963,0.00,0.00,-2.90,2.10,-1.60,-10.40,0,1,0,93,98,-3955,4084,16470,3011.00,11,P-GPS,1,0,0,0,461,0,0,1628701147973,4186,4189,4191,4187,0,0,4,,,,,,,0,0,0,-21.00,-16.00,-104.00,0.00,0.00,-106.00,6,29.00,29.00,2.85,0.00,0.00,-29.00,0,,,100,100,19,2,0,0,0,2,0,,,,,0.0,0.0,-1
51.999700,-0.454959,3.20,0.00,2.80,0.31,3.20,3.20,3.10,0.31,502,2021-08-11 16:59:08.036,2021-08-11 17:59:08.036,16,0,0,16.470,51.999699,-0.454963,0.00,0.00,-2.80,2.40,-1.80,-10.10,0,1,0,93,98,-3955,4084,16470,3011.00,11,P-GPS,1,0,0,0,450,0,0,1628701148036,4186,4189,4191,4187,0,0,4,,,,,,,0,0,0,-24.00,-18.00,-101.00,0.00,0.00,-106.00,6,32.00,28.00,3.08,0.00,0.00,-28.00,0,,,100,100,19,2,0,0,0,2,0,,,,,0.0,0.0,-1
51.999700,-0.454959,3.40,0.00,2.80,0.30,3.40,3.40,3.10,0.31,600,2021-08-11 16:59:08.134,2021-08-11 17:59:08.134,16,0,0,16.470,51.999699,-0.454963,0.00,0.00,-2.80,2.30,-1.70,-9.90,0,1,0,93,98,-3955,4084,16470,3011.00,11,P-GPS,1,0,0,0,463,0,0,1628701148134,4186,4189,4191,4187,0,0,4,,,,,,,0,0,0,-23.00,-17.00,-99.00,0.00,0.00,-106.00,6,34.00,28.00,3.05,0.00,0.00,-28.00,0,,,100,100,19,2,0,0,0,2,0,,,,,0.0,0.0,-1
51.999700,-0.454958,3.70,0.00,2.80,0.33,3.70,3.70,3.10,0.33,705,2021-08-11 16:59:08.239,2021-08-11 17:59:08.239,16,0,0,16.470,51.999699,-0.454963,0.00,0.00,-2.80,2.10,-1.60,-9.90,0,1,0,93,98,-3955,4084,16470,3011.00,11,P-GPS,1,0,0,0,452,0,0,1628701148239,4186,4189,4191,4187,0,0,4,,,,,,,0,0,0,-21.00,-16.00,-99.00,0.00,0.00,-106.00,6,37.00,28.00,3.31,0.00,0.00,-28.00,0,,,100,100,19,2,0,0,0,2,0,,,,,0.0,0.0,-1
51.999700,-0.454959,4.00,0.00,2.80,0.32,4.00,4.00,3.10,0.33,801,2021-08-11 16:59:08.335,2021-08-11 17:59:08.335,16,0,0,16.470,51.999699,-0.454963,0.00,0.00,-2.80,1.80,-1.50,-9.80,0,1,0,93,98,-3955,4084,16470,3011.00,11,P-GPS,1,0,0,0,446,0,0,1628701148335,4186,4189,4191,4187,0,0,4,,,,,,,0,0,0,-18.00,-15.00,-98.00,0.00,0.00,-106.00,6,40.00,28.00,3.21,0.00,0.00,-28.00,0,,,100,100,19,2,0,0,0,2,0,,,,,0.0,0.0,-1
51.999700,-0.454959,4.30,0.00,2.80,0.34,4.30,4.30,3.10,0.34,920,2021-08-11 16:59:08.454,2021-08-11 17:59:08.454,16,0,0,16.470,51.999699,-0.454963,0.00,-0.10,-2.80,1.60,-1.40,-9.70,0,1,0,93,98,-3955,4084,16470,3011.00,11,P-GPS,1,0,0,0,467,0,0,1628701148454,4186,4189,4191,4187,0,0,4,,,,,,,0,0,0,-16.00,-14.00,-97.00,0.00,0.00,-106.00,6,43.00,28.02,3.43,0.00,-1.00,-28.00,0,,,100,100,19,2,0,0,0,2,0,,,,,0.0,0.0,-1
51.999701,-0.454959,5.20,0.00,3.00,0.35,5.20,5.20,3.10,0.35,1202,2021-08-11 16:59:08.736,2021-08-11 17:59:08.736,16,0,0,16.470,51.999699,-0.454963,0.00,0.00,-3.00,2.40,-1.00,-9.60,0,1,0,93,98,-3955,4084,16470,3011.00,11,P-GPS,1,0,0,0,449,0,0,1628701148736,4186,4189,4191,4187,0,0,4,,,,,,,0,0,0,-24.00,-10.00,-96.00,0.00,0.00,-105.00,6,52.00,30.00,3.48,0.00,0.00,-30.00,0,,,100,100,19,2,0,0,0,2,0,,,,,0.0,0.0,-1
51.999701,-0.454959,5.20,0.00,3.00,0.35,5.20,5.20,3.10,0.35,1350,2021-08-11 16:59:08.884,2021-08-11 17:59:08.884,16,0,0,15.418,51.999699,-0.454963,0.00,0.00,-3.00,2.40,-1.00,-9.60,0,1,0,93,98,-15721,4084,15418,3011.00,11,P-GPS,1,0,0,0,447,0,0,1628701148884,4186,4189,4191,4187,0,0,4,,,,,,,0,0,0,-24.00,-10.00,-96.00,0.00,0.00,-105.00,6,52.00,30.00,3.48,0.00,0.00,-30.00,0,,,100,100,19,2,0,0,0,2,0,,,,,0.0,0.0,-1
51.999701,-0.454959,6.20,0.00,2.90,0.38,6.20,6.20,3.10,0.38,1503,2021-08-11 16:59:09.038,2021-08-11 17:59:09.038,16,0,0,15.418,51.999699,-0.454963,0.00,0.00,-2.90,2.40,-1.40,-9.70,0,1,0,93,98,-15721,4084,15418,3011.00,11,P-GPS,1,0,0,0,436,0,0,1628701149037,4186,4189,4191,4187,0,0,4,,,,,,,0,0,0,-24.00,-14.00,-97.00,0.00,0.00,-105.00,6,62.00,29.00,3.82,0.00,0.00,-29.00,0,,,100,100,19,2,0,0,0,2,0,,,,,0.0,0.0,-1
51.999701,-0.454959,6.50,0.00,2.90,0.38,6.50,6.50,3.10,0.38,1602,2021-08-11 16:59:09.136,2021-08-11 17:59:09.136,16,0,0,15.418,51.999699,-0.454963,0.00,0.00,-2.90,2.10,-1.70,-9.80,0,1,0,93,98,-15721,4084,15418,3011.00,11,P-GPS,1,0,0,0,454,0,0,1628701149136,4186,4189,4191,4187,0,0,4,,,,,,,0,0,0,-21.00,-17.00,-98.00,0.00,0.00,-105.00,6,65.00,29.00,3.77,0.00,0.00,-29.00,0,,,100,100,19,2,0,0,0,2,0,,,,,0.0,0.0,-1
51.999701,-0.454959,6.80,0.00,2.80,0.38,6.80,6.80,3.10,0.38,1715,2021-08-11 16:59:09.250,2021-08-11 17:59:09.249,15,0,0,15.418,51.999699,-0.454963,0.00,0.00,-2.80,2.10,-1.70,-9.80,0,1,0,93,98,-15721,4084,15418,3011.00,11,P-GPS,1,0,0,0,473,0,0,1628701149249,4186,4189,4191,4187,0,0,4,,,,,,,0,0,0,-21.00,-17.00,-98.00,0.00,0.00,-104.00,6,68.00,28.00,3.85,0.00,0.00,-28.00,0,,,100,100,19,2,0,0,0,2,0,,,,,0.0,0.0,-1
51.999701,-0.454959,7.40,0.00,3.00,0.38,7.40,7.40,3.10,0.38,1900,2021-08-11 16:59:09.435,2021-08-11 17:59:09.434,15,0,0,15.418,51.999699,-0.454963,0.00,-0.10,-3.00,2.10,-1.90,-10.10,0,1,0,93,98,-15721,4084,15418,3011.00,11,P-GPS,1,0,0,0,470,0,0,1628701149434,4186,4189,4191,4187,0,0,4,,,,,,,0,0,0,-21.00,-19.00,-101.00,0.00,0.00,-104.00,6,74.00,30.02,3.83,0.00,-1.00,-30.00,0,,,100,100,19,2,0,0,0,2,0,,,,,0.0,0.0,-1
51.999701,-0.454959,7.70,0.00,3.00,0.38,7.70,7.70,3.10,0.38,2003,2021-08-11 16:59:09.537,2021-08-11 17:59:09.537,15,0,0,15.418,51.999699,-0.454963,0.00,-0.10,-3.00,2.20,-1.50,-10.20,0,1,0,93,98,-15721,4084,15418,3011.00,11,P-GPS,1,0,0,0,450,0,0,1628701149537,4186,4189,4191,4187,0,0,4,,,,,,,0,0,0,-22.00,-15.00,-102.00,0.00,0.00,-104.00,6,77.00,30.02,3.78,0.00,-1.00,-30.00,0,,,100,100,19,2,0,0,0,2,0,,,,,0.0,0.0,-1
51.999701,-0.454959,8.00,0.00,2.90,0.39,8.00,8.00,3.10,0.39,2107,2021-08-11 16:59:09.642,2021-08-11 17:59:09.641,15,0,0,15.418,51.999699,-0.454963,0.00,-0.10,-2.90,2.40,-1.50,-10.10,0,1,0,93,98,-15721,4084,15418,3011.00,11,P-GPS,1,0,0,0,456,0,0,1628701149641,4186,4189,4191,4187,0,0,4,,,,,,,0,0,0,-24.00,-15.00,-101.00,0.00,0.00,-104.00,6,80.00,29.02,3.88,0.00,-1.00,-29.00,0,,,100,100,19,2,0,0,0,2,0,,,,,0.0,0.0,-1
51.999701,-0.454960,8.30,0.00,2.90,0.38,8.30,8.30,3.10,0.39,2204,2021-08-11 16:59:09.739,2021-08-11 17:59:09.738,15,0,0,15.418,51.999699,-0.454963,0.00,-0.10,-2.90,2.80,-1.10,-10.00,0,1,0,93,98,-15721,4084,15418,3011.00,11,P-GPS,1,0,0,0,419,0,0,1628701149738,4186,4189,4191,4187,0,0,4,,,,,,,0,0,0,-28.00,-11.00,-100.00,0.00,0.00,-104.00,6,83.00,29.02,3.82,0.00,-1.00,-29.00,0,,,100,100,19,2,0,0,0,2,0,,,,,0.0,0.0,-1
51.999701,-0.454960,8.70,0.00,2.90,0.37,8.70,8.70,3.10,0.39,2298,2021-08-11 16:59:09.833,2021-08-11 17:59:09.833,15,0,0,15.418,51.999699,-0.454963,0.00,-0.10,-2.90,2.90,-0.90,-10.10,0,1,0,93,98,-15721,4084,15418,3011.00,11,P-GPS,1,0,0,0,324,0,0,1628701149832,4186,4189,4191,4187,0,0,4,,,,,,,0,0,0,-29.00,-9.00,-101.00,0.00,0.00,-104.00,6,87.00,29.02,3.66,0.00,-1.00,-29.00,0,,,100,100,19,2,0,0,0,2,0,,,,,0.0,0.0,-1
51.999701,-0.454960,8.90,0.00,2.50,0.37,8.90,8.90,3.10,0.39,2400,2021-08-11 16:59:09.935,2021-08-11 17:59:09.934,15,0,0,15.623,51.999699,-0.454963,0.00,-0.10,-2.50,2.80,-1.00,-10.10,0,1,0,93,98,-12750,4084,15623,3011.00,11,P-GPS,1,0,0,0,266,0,0,1628701149934,3923,3917,3892,3859,0,0,4,,,,,,,0,0,0,-28.00,-10.00,-101.00,0.00,0.00,-104.00,6,89.00,25.02,3.67,0.00,-1.00,-25.00,0,,,100,100,19,2,0,0,0,2,0,,,,,0.0,0.0,-1
51.999701,-0.454960,9.30,0.00,1.70,0.34,9.30,9.30,3.10,0.39,2600,2021-08-11 16:59:10.135,2021-08-11 17:59:10.134,16,0,0,15.623,51.999699,-0.454963,0.00,-0.10,-1.70,2.60,-1.40,-10.10,0,1,0,93,98,-12750,4084,15623,3011.00,11,P-GPS,1,0,0,0,76,0,0,1628701150134,3923,3917,3892,3859,0,0,4,,,,,,,0,0,0,-26.00,-14.00,-101.00,0.00,0.00,-104.00,6,93.00,17.03,3.37,0.00,-1.00,-17.00,0,,,100,100,19,2,0,0,0,2,0,,,,,0.0,0.0,-1
51.999701,-0.454961,9.50,0.00,1.30,0.32,9.50,9.50,3.10,0.39,2704,2021-08-11 16:59:10.238,2021-08-11 17:59:10.238,16,0,0,15.623,51.999699,-0.454963,0.00,-0.10,-1.30,2.60,-1.70,-10.10,0,1,0,93,98,-12750,4084,15623,3011.00,11,P-GPS,1,0,0,0,0,0,0,1628701150238,3923,3917,3892,3859,0,0,4,,,,,,,0,0,0,-26.00,-17.00,-101.00,0.00,0.00,-104.00,6,95.00,13.04,3.24,0.00,-1.00,-13.00,0,,,100,100,19,2,0,0,0,2,0,,,,,0.0,0.0,-1
51.999701,-0.454961,9.60,0.00,1.00,0.32,9.60,9.60,3.10,0.39,2799,2021-08-11 16:59:10.334,2021-08-11 17:59:10.333,16,0,0,15.623,51.999699,-0.454963,0.00,-0.10,-1.00,2.50,-1.70,-10.20,0,1,0,93,98,-12750,4084,15623,3011.00,11,P-GPS,1,0,0,0,0,0,0,1628701150333,3923,3917,3892,3859,0,0,4,,,,,,,0,0,0,-25.00,-17.00,-102.00,0.00,0.00,-104.00,6,96.00,10.05,3.15,0.00,-1.00,-10.00,0,,,100,100,19,2,0,0,0,2,0,,,,,0.0,0.0,-1
51.999701,-0.454961,9.70,0.00,0.61,0.31,9.70,9.70,3.10,0.39,2903,2021-08-11 16:59:10.438,2021-08-11 17:59:10.438,16,0,0,15.623,51.999699,-0.454963,0.00,-0.10,-0.60,2.60,-1.50,-10.20,0,1,0,93,98,-12750,4084,15623,3011.00,11,P-GPS,1,0,0,0,0,0,0,1628701150437,3923,3917,3892,3859,0,0,4,,,,,,,0,0,0,-26.00,-15.00,-102.00,0.00,0.00,-104.00,6,97.00,6.08,3.15,0.00,-1.00,-6.00,0,,,100,100,19,2,0,0,0,2,0,,,,,0.0,0.0,-1
51.999701,-0.454961,9.70,0.00,0.51,0.31,9.70,9.70,3.10,0.39,3003,2021-08-11 16:59:10.537,2021-08-11 17:59:10.537,16,0,0,15.623,51.999699,-0.454963,0.00,-0.10,-0.50,2.60,-0.90,-10.20,0,1,0,93,98,-12750,4084,15623,3011.00,11,P-GPS,1,0,0,0,0,0,0,1628701150537,3923,3917,3892,3859,0,0,4,,,,,,,0,0,0,-26.00,-9.00,-102.00,0.00,0.00,-104.00,6,97.00,5.10,3.11,0.00,-1.00,-5.00,0,,,100,100,19,2,0,0,0,2,0,,,,,0.0,0.0,-1
51.999701,-0.454962,9.80,0.00,0.40,0.30,9.80,9.80,3.10,0.39,3106,2021-08-11 16:59:10.641,2021-08-11 17:59:10.640,15,0,0,15.623,51.999699,-0.454963,0.00,0.00,-0.40,2.70,-0.70,-10.20,0,1,0,93,98,-12750,4084,15623,3011.00,11,P-GPS,1,0,0,0,0,0,0,1628701150640,3923,3917,3892,3859,0,0,4,,,,,,,0,0,0,-27.00,-7.00,-102.00,0.00,0.00,-104.00,6,98.00,4.00,2.95,0.00,0.00,-4.00,0,,,100,100,19,2,0,0,0,2,0,,,,,0.0,0.0,-1
51.999701,-0.454962,9.80,0.00,0.30,0.30,9.80,9.80,3.10,0.39,3202,2021-08-11 16:59:10.737,2021-08-11 17:59:10.736,15,0,0,15.623,51.999699,-0.454963,0.00,0.00,-0.30,2.70,-0.60,-10.10,0,1,0,93,98,-12750,4084,15623,3011.00,11,P-GPS,1,0,0,0,0,0,0,1628701150736,3923,3917,3892,3859,0,0,4,,,,,,,0,0,0,-27.00,-6.00,-101.00,0.00,0.00,-104.00,6,98.00,3.00,2.97,0.00,0.00,-3.00,0,,,100,100,19,2,0,0,0,2,0,,,,,0.0,0.0,-1
51.999701,-0.454962,9.90,0.00,0.20,0.29,9.90,9.90,3.10,0.39,3315,2021-08-11 16:59:10.850,2021-08-11 17:59:10.850,15,0,0,15.623,51.999699,-0.454963,0.00,0.00,-0.20,3.00,-0.90,-10.10,0,1,0,93,98,-12750,4084,15623,3011.00,11,P-GPS,1,0,0,0,0,0,0,1628701150849,3923,3917,3892,3859,0,0,4,,,,,,,0,0,0,-30.00,-9.00,-101.00,0.00,0.00,-104.00,6,99.00,2.00,2.94,0.00,0.00,-2.00,0,,,100,100,19,2,0,0,0,2,0,,,,,0.0,0.0,-1
51.999701,-0.454962,9.90,0.00,0.20,0.30,9.90,9.90,3.10,0.39,3411,2021-08-11 16:59:10.946,2021-08-11 17:59:10.945,15,0,0,15.623,51.999699,-0.454963,0.00,0.00,-0.20,3.20,-0.90,-10.10,0,1,0,93,98,-12750,4084,15623,3011.00,11,P-GPS,1,0,0,0,0,0,0,1628701150945,3923,3917,3892,3859,0,0,4,,,,,,,0,0,0,-32.00,-9.00,-101.00,0.00,0.00,-104.00,6,99.00,2.00,2.97,0.00,0.00,-2.00,0,,,100,100,19,2,0,0,0,2,0,,,,,0.0,0.0,-1
51.999701,-0.454962,9.90,0.00,0.10,0.28,9.90,9.90,3.10,0.39,3515,2021-08-11 16:59:11.050,2021-08-11 17:59:11.049,15,0,0,15.623,51.999699,-0.454963,0.00,0.00,-0.10,3.10,-0.50,-10.10,0,1,0,93,98,-12750,4084,15623,3011.00,11,P-GPS,1,0,0,0,0,0,0,1628701151049,3923,3917,3892,3859,0,0,4,,,,,,,0,0,0,-31.00,-5.00,-101.00,0.00,0.00,-104.00,6,99.00,1.00,2.78,0.00,0.00,-1.00,0,,,100,100,19,2,0,0,0,2,0,,,,,0.0,0.0,-1
51.999701,-0.454962,10.00,0.00,0.10,0.29,10.00,10.00,3.10,0.39,3612,2021-08-11 16:59:11.146,2021-08-11 17:59:11.146,15,0,0,15.623,51.999699,-0.454963,0.00,0.00,-0.10,3.20,-0.60,-10.10,0,1,0,93,98,-12750,4084,15623,3011.00,11,P-GPS,1,0,0,0,0,0,0,1628701151146,3923,3917,3892,3859,0,0,4,,,,,,,0,0,0,-32.00,-6.00,-101.00,0.00,0.00,-104.00,6,100.00,1.00,2.94,0.00,0.00,-1.00,0,,,100,100,19,2,0,0,0,2,0,,,,,0.0,0.0,-1
51.999701,-0.454963,10.00,0.00,0.00,0.26,10.00,10.00,3.10,0.39,3705,2021-08-11 16:59:11.240,2021-08-11 17:59:11.239,15,0,0,15.623,51.999699,-0.454963,0.00,0.00,0.00,3.10,-0.60,-10.20,0,1,0,93,98,-12750,4084,15623,3011.00,11,P-GPS,1,0,0,0,0,0,0,1628701151239,3923,3917,3892,3859,0,0,4,,,,,,,0,0,0,-31.00,-6.00,-102.00,0.00,0.00,-104.00,6,100.00,0.00,2.60,0.00,0.00,0.00,0,,,100,100,19,2,0,0,0,2,0,,,,,0.0,0.0,-1
51.999701,-0.454963,10.00,0.00,0.00,0.26,10.00,10.00,3.10,0.39,3809,2021-08-11 16:59:11.344,2021-08-11 17:59:11.343,15,0,0,15.623,51.999699,-0.454963,0.00,0.00,0.00,3.20,-0.70,-10.10,0,1,0,93,98,-12750,4084,15623,3011.00,11,P-GPS,1,0,0,0,0,0,0,1628701151343,3923,3917,3892,3859,0,0,4,,,,,,,0,0,0,-32.00,-7.00,-101.00,0.00,0.00,-104.00,6,100.00,0.00,2.58,0.00,0.00,0.00,0,,,100,100,19,2,0,0,0,2,0,,,,,0.0,0.0,-1
51.999701,-0.454963,10.00,0.00,0.00,0.25,10.00,10.00,3.10,0.39,3907,2021-08-11 16:59:11.441,2021-08-11 17:59:11.441,15,0,0,15.623,51.999699,-0.454963,0.00,0.00,0.00,2.90,-0.90,-10.00,0,1,0,93,98,-12750,4084,15623,3011.00,11,P-GPS,1,0,0,0,0,0,0,1628701151441,3923,3917,3892,3859,0,0,4,,,,,,,0,0,0,-29.00,-9.00,-100.00,0.00,0.00,-104.00,6,100.00,0.00,2.51,0.00,0.00,0.00,0,,,100,100,19,2,0,0,0,2,0,,,,,0.0,0.0,-1
51.999701,-0.454963,10.00,0.00,0.00,0.25,10.00,10.00,3.10,0.39,4003,2021-08-11 16:59:11.537,2021-08-11 17:59:11.537,15,0,0,15.623,51.999699,-0.454963,0.00,0.00,0.00,2.80,-1.10,-9.90,0,1,0,93,98,-12750,4084,15623,3011.00,11,P-GPS,1,0,0,0,0,0,0,1628701151537,3923,3917,3892,3859,0,0,4,,,,,,,0,0,0,-28.00,-11.00,-99.00,0.00,0.00,-104.00,6,100.00,0.00,2.50,0.00,0.00,0.00,0,,,100,100,19,2,0,0,0,2,0,,,,,0.0,0.0,-1
51.999701,-0.454963,10.00,0.00,0.00,0.23,10.00,10.00,3.10,0.39,4103,2021-08-11 16:59:11.637,2021-08-11 17:59:11.637,15,0,0,15.623,51.999699,-0.454963,0.00,0.00,0.00,2.50,-1.10,-9.80,0,1,0,93,98,-12750,4084,15623,3011.00,11,P-GPS,1,0,0,0,0,0,0,1628701151637,3923,3917,3892,3859,0,0,4,,,,,,,0,0,0,-25.00,-11.00,-98.00,0.00,0.00,-104.00,6,100.00,0.00,2.31,0.00,0.00,0.00,0,,,100,100,19,2,0,0,0,2,0,,,,,0.0,0.0,-1
51.999700,-0.454964,9.90,0.00,0.00,0.21,10.00,10.00,3.10,0.39,4302,2021-08-11 16:59:11.836,2021-08-11 17:59:11.836,15,0,0,15.623,51.999699,-0.454963,0.00,0.00,0.00,2.50,-0.70,-9.80,0,1,0,93,98,-12750,4084,15623,3011.00,11,P-GPS,1,0,0,0,0,0,0,1628701151836,3923,3917,3892,3859,0,0,4,,,,,,,0,0,0,-25.00,-7.00,-98.00,0.00,0.00,-104.00,6,99.00,0.00,2.09,0.00,0.00,0.00,0,,,100,100,19,2,0,0,0,2,0,,,,,0.0,0.0,-1
51.999701,-0.454964,9.90,0.00,0.00,0.21,10.00,10.00,3.10,0.39,4422,2021-08-11 16:59:11.956,2021-08-11 17:59:11.956,15,0,0,16.017,51.999699,-0.454963,0.00,0.00,0.00,2.40,-0.70,-9.80,0,1,0,93,98,-8185,4084,16017,3011.00,11,P-GPS,1,0,0,0,0,0,0,1628701151956,3923,3917,3892,3859,0,0,4,,,,,,,0,0,0,-24.00,-7.00,-98.00,0.00,0.00,-103.00,6,99.00,0.00,2.13,0.00,0.00,0.00,0,,,100,100,19,2,0,0,0,2,0,,,,,0.0,0.0,-1
51.999700,-0.454964,10.00,0.00,0.00,0.20,10.00,10.00,3.10,0.39,4541,2021-08-11 16:59:12.076,2021-08-11 17:59:12.075,15,0,0,16.017,51.999699,-0.454963,0.00,0.00,0.00,2.50,-0.80,-9.90,0,1,0,93,98,-8185,4084,16017,3011.00,11,P-GPS,1,0,0,0,0,0,0,1628701152075,3923,3917,3892,3859,0,0,4,,,,,,,0,0,0,-25.00,-8.00,-99.00,0.00,0.00,-103.00,6,100.00,0.00,2.04,0.00,0.00,0.00,0,,,100,100,19,2,0,0,0,2,0,,,,,0.0,0.0,-1
51.999700,-0.454964,9.90,0.00,0.00,0.20,10.00,10.00,3.10,0.39,4702,2021-08-11 16:59:12.237,2021-08-11 17:59:12.236,15,0,0,16.017,51.999699,-0.454963,0.00,0.00,0.00,2.70,-0.90,-9.90,0,1,0,93,98,-8185,4084,16017,3011.00,11,P-GPS,1,0,0,0,0,0,0,1628701152236,3923,3917,3892,3859,0,0,4,,,,,,,0,0,0,-27.00,-9.00,-99.00,0.00,0.00,-103.00,6,99.00,0.00,1.99,0.00,0.00,0.00,0,,,100,100,19,2,0,0,0,2,0,,,,,0.0,0.0,-1
51.999700,-0.454964,10.00,0.00,0.00,0.20,10.00,10.00,3.10,0.39,4810,2021-08-11 16:59:12.345,2021-08-11 17:59:12.344,15,0,0,16.017,51.999699,-0.454963,0.00,0.00,0.00,2.80,-0.90,-9.90,0,1,0,93,98,-8185,4084,16017,3011.00,11,P-GPS,1,0,0,0,0,0,0,1628701152344,3923,3917,3892,3859,0,0,4,,,,,,,0,0,0,-28.00,-9.00,-99.00,0.00,0.00,-103.00,6,100.00,0.00,1.96,0.00,0.00,0.00,0,,,100,100,19,2,0,0,0,2,0,,,,,0.0,0.0,-1
51.999700,-0.454964,9.90,0.00,0.00,0.20,10.00,10.00,3.10,0.39,4907,2021-08-11 16:59:12.442,2021-08-11 17:59:12.441,15,0,0,16.017,51.999699,-0.454963,0.00,0.00,0.00,3.00,-0.20,-9.90,0,1,0,93,98,-8185,4084,16017,3011.00,11,P-GPS,1,0,0,0,0,0,0,1628701152441,3923,3917,3892,3859,0,0,4,,,,,,,0,0,0,-30.00,-2.00,-99.00,0.00,0.00,-103.00,6,99.00,0.00,1.96,0.00,0.00,0.00,0,,,100,100,19,2,0,0,0,2,0,,,,,0.0,0.0,-1
51.999700,-0.454964,9.90,0.00,0.00,0.20,10.00,10.00,3.10,0.39,5002,2021-08-11 16:59:12.537,2021-08-11 17:59:12.536,15,0,0,16.017,51.999699,-0.454963,0.00,0.00,0.00,3.30,0.20,-9.90,0,1,0,93,98,-8185,4084,16017,3011.00,11,P-GPS,1,0,0,0,0,0,0,1628701152536,3923,3917,3892,3859,0,0,4,,,,,,,0,0,0,-33.00,2.00,-99.00,0.00,0.00,-103.00,6,99.00,0.00,1.97,0.00,0.00,0.00,0,,,100,100,19,2,0,0,0,2,0,,,,,0.0,0.0,-1
51.999700,-0.454964,9.90,0.00,0.00,0.20,10.00,10.00,3.10,0.39,5115,2021-08-11 16:59:12.650,2021-08-11 17:59:12.649,16,0,0,16.017,51.999699,-0.454963,0.00,0.00,0.00,3.30,0.30,-9.90,0,1,0,93,98,-8185,4084,16017,3011.00,11,P-GPS,1,0,0,0,0,0,0,1628701152649,3923,3917,3892,3859,0,0,4,,,,,,,0,0,0,-33.00,3.00,-99.00,0.00,0.00,-103.00,6,99.00,0.00,2.03,0.00,0.00,0.00,0,,,100,100,19,2,0,0,0,2,0,,,,,0.0,0.0,-1
51.999700,-0.454964,9.90,0.00,0.00,0.19,10.00,10.00,3.10,0.39,5207,2021-08-11 16:59:12.741,2021-08-11 17:59:12.741,16,0,0,16.017,51.999699,-0.454963,0.00,0.00,0.00,3.10,0.10,-10.10,0,1,0,93,98,-8185,4084,16017,3011.00,11,P-GPS,1,0,0,0,0,0,0,1628701152741,3923,3917,3892,3859,0,0,4,,,,,,,0,0,0,-31.00,1.00,-101.00,0.00,0.00,-103.00,6,99.00,0.00,1.94,0.00,0.00,0.00,0,,,100,100,19,2,0,0,0,2,0,,,,,0.0,0.0,-1
51.999700,-0.454964,9.90,0.00,0.00,0.19,10.00,10.00,3.10,0.39,5333,2021-08-11 16:59:12.867,2021-08-11 17:59:12.867,16,0,0,15.814,51.999699,-0.454963,0.00,0.00,0.00,3.10,0.10,-10.10,0,1,0,93,98,-9557,4084,15814,3011.00,11,P-GPS,1,0,0,0,0,0,0,1628701152867,3923,3917,3892,3859,0,0,4,,,,,,,0,0,0,-31.00,1.00,-101.00,0.00,0.00,-103.00,6,99.00,0.00,1.94,0.00,0.00,0.00,0,,,100,100,19,2,0,0,0,2,0,,,,,0.0,0.0,-1
51.999700,-0.454964,9.90,0.00,0.10,0.18,10.00,10.00,3.10,0.39,5516,2021-08-11 16:59:13.050,2021-08-11 17:59:13.050,16,0,0,15.814,51.999699,-0.454963,0.00,0.10,0.00,2.90,-0.80,-10.20,0,1,0,93,98,-9557,4084,15814,3011.00,11,P-GPS,1,0,0,0,0,0,0,1628701153050,3923,3917,3892,3859,0,0,4,,,,,,,0,0,0,-29.00,-8.00,-102.00,0.00,0.00,-103.00,6,99.00,1.00,1.82,0.00,1.00,0.00,0,,,100,100,19,2,0,0,0,2,0,,,,,0.0,0.0,-1
51.999700,-0.454964,9.90,0.00,0.10,0.17,10.00,10.00,3.10,0.39,5652,2021-08-11 16:59:13.187,2021-08-11 17:59:13.186,16,0,0,15.814,51.999699,-0.454963,0.00,0.10,0.00,2.80,-1.10,-10.20,0,1,0,93,98,-9557,4084,15814,3011.00,11,P-GPS,1,0,0,0,0,0,0,1628701153186,3923,3917,3892,3859,0,0,4,,,,,,,0,0,0,-28.00,-11.00,-102.00,0.00,0.00,-103.00,6,99.00,1.00,1.72,0.00,1.00,0.00,0,,,100,100,19,2,0,0,0,2,0,,,,,0.0,0.0,-1
51.999700,-0.454964,9.80,0.00,0.10,0.15,10.00,10.00,3.10,0.39,5736,2021-08-11 16:59:13.271,2021-08-11 17:59:13.270,16,0,0,15.814,51.999699,-0.454963,0.00,0.10,0.00,2.40,-1.60,-10.10,0,1,0,93,98,-9557,4084,15814,3011.00,11,P-GPS,1,0,0,0,0,0,0,1628701153270,3923,3917,3892,3859,0,0,4,,,,,,,0,0,0,-24.00,-16.00,-101.00,0.00,0.00,-103.00,6,98.00,1.00,1.54,0.00,1.00,0.00,0,,,100,100,19,2,0,0,0,2,0,,,,,0.0,0.0,-1
51.999700,-0.454963,9.80,0.00,0.00,0.12,10.00,10.00,3.10,0.39,6020,2021-08-11 16:59:13.554,2021-08-11 17:59:13.554,16,0,0,15.814,51.999699,-0.454963,0.00,0.00,0.00,2.00,-1.90,-10.10,0,1,0,93,98,-9557,4084,15814,3011.00,11,P-GPS,1,0,0,0,0,0,0,1628701153554,3923,3917,3892,3859,0,0,4,,,,,,,0,0,0,-20.00,-19.00,-101.00,0.00,0.00,-103.00,6,98.00,0.00,1.23,0.00,0.00,0.00,0,,,100,100,19,2,0,0,0,2,0,,,,,0.0,0.0,-1
51.999700,-0.454963,9.80,0.00,0.10,0.11,10.00,10.00,3.10,0.39,6202,2021-08-11 16:59:13.737,2021-08-11 17:59:13.736,16,0,0,15.814,51.999699,-0.454963,0.00,0.00,-0.10,1.50,-1.80,-10.00,0,1,0,93,98,-9557,4084,15814,3011.00,11,P-GPS,1,0,0,0,0,0,0,1628701153736,3923,3917,3892,3859,0,0,4,,,,,,,0,0,0,-15.00,-18.00,-100.00,0.00,0.00,-103.00,6,98.00,1.00,1.11,0.00,0.00,-1.00,0,,,100,100,19,2,0,0,0,2,0,,,,,0.0,0.0,-1
51.999700,-0.454963,9.80,0.00,0.00,0.11,10.00,10.00,3.10,0.39,6301,2021-08-11 16:59:13.836,2021-08-11 17:59:13.836,16,0,0,15.814,51.999699,-0.454963,0.00,0.00,0.00,1.60,-2.10,-10.00,0,1,0,93,98,-9557,4084,15814,3011.00,11,P-GPS,1,0,0,0,0,0,0,1628701153835,3923,3917,3892,3859,0,0,4,,,,,,,0,0,0,-16.00,-21.00,-100.00,0.00,0.00,-103.00,6,98.00,0.00,1.15,0.00,0.00,0.00,0,,,100,100,19,2,0,0,0,2,0,,,,,0.0,0.0,-1
51.999700,-0.454963,9.80,0.00,0.00,0.12,10.00,10.00,3.10,0.39,6424,2021-08-11 16:59:13.959,2021-08-11 17:59:13.958,16,0,0,15.691,51.999699,-0.454963,0.00,0.00,0.00,1.60,-2.10,-10.00,0,1,0,93,98,-10443,4084,15691,3011.00,11,P-GPS,1,0,83,0,0,0,0,1628701153958,3923,3917,3892,3859,0,0,4,,,,,,,0,0,0,-16.00,-21.00,-100.00,0.00,0.00,-103.00,6,98.00,0.00,1.15,0.00,0.00,0.00,0,,,100,100,19,2,0,0,0,2,0,,,,,0.0,0.0,-1
51.999700,-0.454963,9.80,0.00,0.00,0.11,10.00,10.00,3.10,0.39,6512,2021-08-11 16:59:14.047,2021-08-11 17:59:14.046,16,0,0,15.691,51.999699,-0.454963,0.00,0.00,0.00,1.50,-2.00,-10.20,0,1,0,93,98,-10443,4084,15691,3011.00,11,P-GPS,1,0,202,0,0,0,0,1628701154046,3923,3917,3892,3859,0,0,4,,,,,,,0,0,0,-15.00,-20.00,-102.00,0.00,0.00,-103.00,6,98.00,0.00,1.11,0.00,0.00,0.00,0,,,100,100,19,2,0,0,0,2,0,,,,,0.0,0.0,-1
51.999700,-0.454963,9.80,0.00,0.14,0.12,10.00,10.00,3.10,0.39,6601,2021-08-11 16:59:14.136,2021-08-11 17:59:14.135,16,0,0,15.691,51.999699,-0.454963,0.20,0.00,0.00,-3.40,-1.60,-10.30,0,1,0,93,98,-10443,4084,15691,3011.00,11,P-GPS,1,0,298,0,0,0,0,1628701154135,3923,3917,3892,3859,0,0,4,,,,,,,0,0,0,34.00,-16.00,-103.00,0.00,0.00,-103.00,6,98.00,1.41,1.19,2.00,0.00,0.00,0,,,100,100,19,2,0,0,0,2,0,,,,,0.0,0.0,-1
51.999700,-0.454963,9.80,0.00,0.20,0.14,10.00,10.00,3.10,0.39,6755,2021-08-11 16:59:14.290,2021-08-11 17:59:14.289,16,0,0,15.691,51.999699,-0.454963,0.20,0.00,0.00,-9.90,-1.20,-10.40,0,1,0,93,98,-10443,4084,15691,3011.00,11,P-GPS,1,0,318,0,0,0,0,1628701154289,3923,3917,3892,3859,0,0,4,,,,,,,0,0,0,99.00,-12.00,-104.00,0.00,0.00,-103.00,6,98.00,2.00,1.37,2.00,0.00,0.00,0,,,100,100,19,2,0,0,0,2,0,,,,,0.0,0.0,-1
51.999700,-0.454963,9.80,0.00,0.41,0.17,10.00,10.00,3.10,0.39,6808,2021-08-11 16:59:14.343,2021-08-11 17:59:14.342,16,0,0,15.691,51.999699,-0.454963,0.40,0.00,-0.10,-13.30,-0.80,-10.50,0,1,0,93,98,-10443,4084,15691,3011.00,11,P-GPS,1,0,368,0,0,0,0,1628701154342,3923,3917,3892,3859,0,0,4,,,,,,,0,0,0,133.00,-8.00,-105.00,0.00,0.00,-103.00,6,98.00,4.12,1.71,4.00,0.00,-1.00,0,,,100,100,19,2,0,0,0,2,0,,,,,0.0,0.0,-1
51.999701,-0.454963,9.80,0.00,0.60,0.22,10.00,10.00,3.10,0.39,6911,2021-08-11 16:59:14.445,2021-08-11 17:59:14.445,16,0,0,15.691,51.999699,-0.454963,0.60,0.00,0.00,-14.40,-0.40,-10.50,0,1,0,93,98,-10443,4084,15691,3011.00,11,P-GPS,1,0,420,0,0,0,0,1628701154445,3923,3917,3892,3859,0,0,4,,,,,,,0,0,0,144.00,-4.00,-105.00,0.00,0.00,-103.00,6,98.00,6.00,2.22,6.00,0.00,0.00,0,,,100,100,19,2,0,0,0,2,0,,,,,0.0,0.0,-1
51.999701,-0.454963,9.80,0.00,0.90,0.29,10.00,10.00,3.10,0.39,7015,2021-08-11 16:59:14.550,2021-08-11 17:59:14.549,16,0,0,15.691,51.999699,-0.454963,0.90,0.00,0.00,-15.70,-0.60,-10.50,0,1,0,93,98,-10443,4084,15691,3011.00,11,P-GPS,1,0,442,0,0,0,0,1628701154549,3923,3917,3892,3859,0,0,4,,,,,,,0,0,0,157.00,-6.00,-105.00,0.00,0.00,-103.00,6,98.00,9.00,2.89,9.00,0.00,0.00,0,,,100,100,19,2,0,0,0,2,0,,,,,0.0,0.0,-1
51.999702,-0.454963,9.80,0.00,1.10,0.41,10.00,10.00,3.10,0.41,7112,2021-08-11 16:59:14.647,2021-08-11 17:59:14.646,16,0,0,15.691,51.999699,-0.454963,1.10,-0.10,0.00,-16.80,-0.60,-10.50,0,1,0,93,98,-10443,4084,15691,3011.00,11,P-GPS,1,0,423,0,0,0,0,1628701154646,3923,3917,3892,3859,0,0,4,,,,,,,0,0,0,168.00,-6.00,-105.00,0.00,0.00,-103.00,6,98.00,11.05,4.08,11.00,-1.00,0.00,0,,,100,100,19,2,0,0,0,2,0,,,,,0.0,0.0,-1
51.999703,-0.454963,9.80,0.00,1.40,0.54,10.00,10.00,3.10,0.54,7216,2021-08-11 16:59:14.750,2021-08-11 17:59:14.750,16,0,0,15.691,51.999699,-0.454963,1.40,-0.10,0.00,-16.80,-0.40,-10.50,0,1,0,93,98,-10443,4084,15691,3011.00,11,P-GPS,1,0,405,0,0,0,0,1628701154750,3923,3917,3892,3859,0,0,4,,,,,,,0,0,0,168.00,-4.00,-105.00,0.00,0.00,-103.00,6,98.00,14.04,5.39,14.00,-1.00,0.00,0,,,100,100,19,2,0,0,0,2,0,,,,,0.0,0.0,-1
51.999705,-0.454964,9.80,0.00,1.60,0.71,10.00,10.00,3.10,0.71,7306,2021-08-11 16:59:14.840,2021-08-11 17:59:14.840,16,0,0,15.691,51.999699,-0.454963,1.60,-0.10,0.00,-15.70,-0.40,-10.50,0,1,0,93,98,-10443,4084,15691,3011.00,11,P-GPS,1,0,377,0,0,0,0,1628701154840,3923,3917,3892,3859,0,0,4,,,,,,,0,0,0,157.00,-4.00,-105.00,0.00,0.00,-103.00,6,98.00,16.03,7.05,16.00,-1.00,0.00,0,,,100,100,19,2,0,0,0,2,0,,,,,0.0,0.0,-1
51.999709,-0.454964,9.70,0.00,2.01,1.14,10.00,10.00,3.10,1.14,7517,2021-08-11 16:59:15.052,2021-08-11 17:59:15.051,16,0,0,15.653,51.999699,-0.454963,2.00,-0.20,0.00,-13.20,-0.70,-10.50,0,1,0,93,98,-10692,4084,15653,3011.00,11,P-GPS,1,0,323,0,0,0,0,1628701155051,3923,3917,3892,3859,0,0,4,,,,,,,0,0,0,132.00,-7.00,-105.00,0.00,0.00,-103.00,6,97.00,20.10,11.44,20.00,-2.00,0.00,0,,,100,100,19,2,0,0,0,2,0,,,,,0.0,0.0,-1
51.999711,-0.454965,9.70,0.00,2.21,1.33,10.00,10.00,3.10,1.33,7603,2021-08-11 16:59:15.137,2021-08-11 17:59:15.137,15,0,0,15.653,51.999699,-0.454963,2.30,-0.20,0.00,-11.50,-0.80,-10.50,0,1,0,93,98,-10692,4084,15653,3011.00,11,P-GPS,1,0,309,0,0,54,0,1628701155137,3923,3917,3892,3859,0,0,4,,,,,,,0,0,0,115.00,-8.00,-105.00,0.00,0.00,-103.00,6,97.00,22.09,13.33,23.00,-2.00,0.00,0,,,100,100,19,2,0,0,0,2,0,,,,,0.0,0.0,-1
51.999713,-0.454965,9.70,0.00,2.31,1.62,10.00,10.00,3.10,1.62,7730,2021-08-11 16:59:15.264,2021-08-11 17:59:15.264,15,0,0,15.653,51.999699,-0.454963,2.30,-0.20,0.00,-10.00,-0.90,-10.60,0,1,0,93,98,-10692,4084,15653,3011.00,11,P-GPS,1,0,293,0,0,185,0,1628701155264,3923,3917,3892,3859,0,0,4,,,,,,,0,0,0,100.00,-9.00,-106.00,0.00,0.00,-103.00,6,97.00,23.09,16.19,23.00,-2.00,0.00,0,,,100,100,19,2,0,0,0,2,0,,,,,0.0,0.0,-1
51.999715,-0.454966,9.70,0.00,2.51,1.87,10.00,10.00,3.10,1.87,7812,2021-08-11 16:59:15.346,2021-08-11 17:59:15.346,15,0,0,15.653,51.999699,-0.454963,2.50,-0.20,0.00,-8.90,-0.90,-9.90,0,1,0,93,98,-10692,4084,15653,3011.00,11,P-GPS,1,0,289,0,0,262,0,1628701155346,3923,3917,3892,3859,0,0,4,,,,,,,0,0,0,89.00,-9.00,-99.00,0.00,0.00,-86.00,6,97.00,25.08,18.66,25.00,-2.00,0.00,0,,,100,100,19,2,0,0,0,2,0,,,,,0.0,0.0,-1
51.999718,-0.454967,9.70,0.00,2.62,2.17,10.00,10.00,3.10,2.17,7908,2021-08-11 16:59:15.443,2021-08-11 17:59:15.442,15,0,0,15.653,51.999699,-0.454963,2.60,-0.30,0.00,-8.40,-0.80,-7.60,0,1,0,93,98,-10692,4084,15653,3011.00,11,P-GPS,1,0,286,0,0,343,0,1628701155442,3923,3917,3892,3859,0,0,4,,,,,,,0,0,0,84.00,-8.00,-76.00,0.00,0.00,-86.00,6,97.00,26.17,21.73,26.00,-3.00,0.00,0,,,100,100,19,2,0,0,0,2,0,,,,,0.0,0.0,-1
51.999720,-0.454967,9.70,0.00,2.71,2.44,10.00,10.00,3.10,2.44,8016,2021-08-11 16:59:15.551,2021-08-11 17:59:15.550,15,0,0,15.653,51.999699,-0.454963,2.70,-0.20,0.00,-8.10,-1.00,-3.70,0,1,0,93,98,-10692,4084,15653,3011.00,11,P-GPS,1,0,284,0,0,397,0,1628701155550,3923,3917,3892,3859,0,0,4,,,,,,,0,0,0,81.00,-10.00,-37.00,0.00,0.00,-68.00,6,97.00,27.07,24.43,27.00,-2.00,0.00,0,,,100,100,19,2,0,0,0,2,0,,,,,0.0,0.0,-1
51.999724,-0.454968,9.70,0.00,2.81,2.79,10.00,10.00,3.10,2.79,8107,2021-08-11 16:59:15.642,2021-08-11 17:59:15.641,16,0,0,15.653,51.999699,-0.454963,2.80,-0.20,0.00,-7.80,-1.10,1.80,0,1,0,93,98,-10692,4084,15653,3011.00,11,P-GPS,1,0,273,0,0,399,0,1628701155641,3923,3917,3892,3859,0,0,4,,,,,,,0,0,0,78.00,-11.00,18.00,0.00,0.00,-44.00,6,97.00,28.07,27.89,28.00,-2.00,0.00,0,,,100,100,19,2,0,0,0,2,0,,,,,0.0,0.0,-1
51.999726,-0.454968,9.70,0.00,2.91,3.08,10.00,10.00,3.10,3.08,8206,2021-08-11 16:59:15.741,2021-08-11 17:59:15.740,16,0,0,15.653,51.999699,-0.454963,2.90,-0.20,0.00,-7.50,-0.90,8.40,0,1,0,93,98,-10692,4084,15653,3011.00,11,P-GPS,1,0,286,0,0,401,0,1628701155740,3923,3917,3892,3859,0,0,4,,,,,,,0,0,0,75.00,-9.00,84.00,0.00,0.00,-14.00,6,97.00,29.07,30.83,29.00,-2.00,0.00,0,,,100,100,19,2,0,0,0,2,0,,,,,0.0,0.0,-1
51.999729,-0.454969,9.70,0.00,3.11,3.46,10.00,10.00,3.11,3.46,8303,2021-08-11 16:59:15.837,2021-08-11 17:59:15.837,16,0,0,15.653,51.999699,-0.454963,3.10,-0.20,0.00,-7.50,-0.90,15.10,0,1,0,93,98,-10692,4084,15653,3011.00,11,P-GPS,1,0,277,0,0,412,0,1628701155837,3923,3917,3892,3859,0,0,4,,,,,,,0,0,0,75.00,-9.00,151.00,0.00,0.00,28.00,6,97.00,31.06,34.57,31.00,-2.00,0.00,0,,,100,100,19,2,0,0,0,2,0,,,,,0.0,0.0,-1
51.999732,-0.454969,9.70,0.00,3.10,3.77,10.00,10.00,3.11,3.77,8408,2021-08-11 16:59:15.943,2021-08-11 17:59:15.942,16,0,0,15.688,51.999699,-0.454963,3.10,-0.10,0.00,-7.80,-0.50,22.40,0,1,0,93,98,-10048,4084,15688,3011.00,11,P-GPS,1,0,284,0,0,413,0,1628701155942,3923,3917,3892,3859,0,0,4,,,,,,,0,0,0,78.00,-5.00,224.00,0.00,0.00,87.00,6,97.00,31.02,37.71,31.00,-1.00,0.00,0,,,100,100,19,2,0,0,0,2,0,,,,,0.0,0.0,-1
51.999736,-0.454969,9.70,0.00,3.30,4.14,10.00,10.00,3.30,4.14,8511,2021-08-11 16:59:16.045,2021-08-11 17:59:16.045,16,0,0,15.688,51.999699,-0.454963,3.30,0.00,0.00,-8.00,-0.10,30.10,0,1,0,93,98,-10048,4084,15688,3011.00,11,P-GPS,1,0,278,0,0,380,0,1628701156045,3923,3917,3892,3859,0,0,4,,,,,,,0,0,0,80.00,-1.00,301.00,0.00,0.00,155.00,6,97.00,33.00,41.38,33.00,0.00,0.00,0,,,100,100,19,2,0,0,0,2,0,,,,,0.0,0.0,-1
51.999739,-0.454970,9.70,0.00,3.30,4.50,10.00,10.00,3.30,4.50,8613,2021-08-11 16:59:16.148,2021-08-11 17:59:16.147,15,0,0,15.688,51.999699,-0.454963,3.40,0.10,0.00,-8.50,0.00,37.60,0,1,0,93,98,-10048,4084,15688,3011.00,11,P-GPS,1,0,286,0,0,348,0,1628701156147,3923,3917,3892,3859,0,0,4,,,,,,,0,0,0,85.00,0.00,376.00,0.00,1.00,303.00,6,97.00,33.00,44.95,34.00,1.00,0.00,0,,,100,100,19,2,0,0,0,2,0,,,,,0.0,0.0,-1
51.999742,-0.454969,9.70,0.00,3.40,4.87,10.00,10.00,3.40,4.87,8720,2021-08-11 16:59:16.254,2021-08-11 17:59:16.254,15,0,0,15.688,51.999699,-0.454963,3.40,0.10,0.00,-9.30,0.70,44.30,0,1,0,93,98,-10048,4084,15688,3011.00,11,P-GPS,1,0,279,0,0,256,0,1628701156254,3923,3917,3892,3859,0,0,4,,,,,,,0,0,0,93.00,7.00,443.00,0.00,1.00,303.00,6,97.00,34.01,48.69,34.00,1.00,0.00,0,,,100,100,19,2,0,0,0,2,0,,,,,0.0,0.0,-1
51.999749,-0.454968,9.70,0.00,3.63,5.64,10.00,10.00,3.63,5.64,8921,2021-08-11 16:59:16.456,2021-08-11 17:59:16.455,15,0,0,15.688,51.999699,-0.454963,3.60,0.50,0.00,-10.20,2.00,52.60,0,1,0,93,98,-10048,4084,15688,3011.00,11,P-GPS,1,0,274,0,0,102,0,1628701156455,3923,3917,3892,3859,0,0,4,,,,,,,0,0,0,102.00,20.00,526.00,0.00,0.00,432.00,6,97.00,36.35,56.41,36.00,5.00,0.00,0,,,100,100,19,2,0,0,0,2,0,,,,,0.0,0.0,-1
51.999756,-0.454966,9.70,0.00,3.79,6.40,10.00,10.00,3.79,6.40,9108,2021-08-11 16:59:16.643,2021-08-11 17:59:16.642,15,0,0,15.688,51.999699,-0.454963,3.70,0.80,0.00,-9.80,2.70,55.60,0,1,0,93,98,-10048,4084,15688,3011.00,11,P-GPS,1,0,275,0,0,31,0,1628701156642,3923,3917,3892,3859,0,0,4,,,,,,,0,0,0,98.00,27.00,556.00,0.00,0.00,505.00,6,97.00,37.85,64.02,37.00,8.00,0.00,0,,,100,100,19,2,0,0,0,2,0,,,,,0.0,0.0,-1
51.999760,-0.454965,9.70,0.00,3.83,6.79,10.00,10.00,3.83,6.79,9206,2021-08-11 16:59:16.740,2021-08-11 17:59:16.740,15,0,0,15.688,51.999699,-0.454963,3.70,1.00,0.00,-9.20,2.90,56.00,0,1,0,93,98,-10048,4084,15688,3011.00,11,P-GPS,1,0,252,1,0,16,0,1628701156740,3923,3917,3892,3859,0,0,4,,,,,,,0,0,0,92.00,29.00,560.00,0.00,0.00,523.00,6,97.00,38.33,67.95,37.00,10.00,0.00,0,,,100,100,19,2,0,0,0,2,0,,,,,0.0,0.0,-1
51.999763,-0.454963,9.70,0.00,3.89,7.20,10.00,10.00,3.89,7.20,9311,2021-08-11 16:59:16.845,2021-08-11 17:59:16.845,15,0,0,15.688,51.999699,-0.454963,3.70,1.20,0.00,-8.40,3.20,56.30,0,1,0,93,98,-10048,4084,15688,3011.00,11,P-GPS,1,0,243,30,0,13,0,1628701156845,3923,3917,3892,3859,0,0,4,,,,,,,0,0,0,84.00,32.00,563.00,0.00,0.00,535.00,6,97.00,38.90,72.03,37.00,12.00,0.00,0,,,100,100,19,2,0,0,0,2,0,,,,,0.0,0.0,-1
51.999767,-0.454961,9.60,0.00,3.92,7.58,10.00,10.00,3.92,7.58,9415,2021-08-11 16:59:16.949,2021-08-11 17:59:16.949,15,0,0,15.617,51.999699,-0.454963,3.70,1.30,0.00,-7.50,2.90,56.50,0,1,0,93,98,-11134,4084,15617,3011.00,11,P-GPS,1,0,227,12,0,12,0,1628701156949,3923,3917,3892,3859,0,0,4,,,,,,,0,0,0,75.00,29.00,565.00,0.00,0.00,542.00,6,96.00,39.22,75.82,37.00,13.00,0.00,0,,,100,100,19,2,0,0,0,2,0,,,,,0.0,0.0,-1
51.999771,-0.454958,9.60,0.00,4.09,8.01,10.00,10.00,4.09,8.01,9542,2021-08-11 16:59:17.076,2021-08-11 17:59:17.076,15,0,0,15.617,51.999699,-0.454963,3.80,1.50,0.00,-6.40,2.60,56.40,0,1,0,93,98,-11134,4084,15617,3011.00,11,P-GPS,1,0,193,17,0,0,0,1628701157076,3923,3917,3892,3859,0,0,4,,,,,,,0,0,0,64.00,26.00,564.00,0.00,0.00,546.00,6,96.00,40.85,80.10,38.00,15.00,0.00,0,,,100,100,19,2,0,0,0,2,0,,,,,0.0,0.0,-1
51.999778,-0.454953,9.60,0.00,4.12,8.80,10.00,10.00,4.12,8.80,9714,2021-08-11 16:59:17.248,2021-08-11 17:59:17.248,15,0,0,15.617,51.999699,-0.454963,3.80,1.60,0.00,-4.40,2.30,55.90,0,1,0,93,98,-11134,4084,15617,3011.00,11,P-GPS,1,0,216,0,0,129,0,1628701157248,3923,3917,3892,3859,0,0,4,,,,,,,0,0,0,44.00,23.00,559.00,0.00,0.00,551.00,6,96.00,41.23,88.02,38.00,16.00,0.00,0,,,100,100,19,2,0,0,0,2,0,,,,,0.0,0.0,-1
51.999781,-0.454951,9.60,0.00,4.07,9.22,10.00,10.00,4.12,9.22,9826,2021-08-11 16:59:17.361,2021-08-11 17:59:17.360,15,0,0,15.617,51.999699,-0.454963,3.70,1.70,0.00,-4.40,1.80,56.30,0,1,0,93,98,-11134,4084,15617,3011.00,11,P-GPS,1,0,209,0,0,240,0,1628701157360,3923,3917,3892,3859,0,0,4,,,,,,,0,0,0,44.00,18.00,563.00,0.00,0.00,553.00,6,96.00,40.72,92.18,37.00,17.00,0.00,0,,,100,100,19,2,0,0,0,2,0,,,,,0.0,0.0,-1
51.999785,-0.454948,9.60,0.00,4.20,9.64,10.00,10.00,4.20,9.64,9915,2021-08-11 16:59:17.450,2021-08-11 17:59:17.449,15,0,0,15.617,51.999699,-0.454963,3.80,1.80,0.00,-4.60,1.50,58.60,0,1,0,93,98,-11134,4084,15617,3011.00,11,P-GPS,1,0,210,0,0,243,0,1628701157449,3923,3917,3892,3859,0,0,4,,,,,,,0,0,0,46.00,15.00,586.00,0.00,0.00,564.00,6,96.00,42.05,96.36,38.00,18.00,0.00,0,,,100,100,19,2,0,0,0,2,0,,,,,0.0,0.0,-1
51.999788,-0.454945,9.60,0.00,4.16,10.04,10.00,10.00,4.20,10.04,10012,2021-08-11 16:59:17.546,2021-08-11 17:59:17.546,15,0,0,15.617,51.999699,-0.454963,3.70,1.90,0.00,-4.70,1.40,61.70,0,1,0,93,98,-11134,4084,15617,3011.00,11,P-GPS,1,0,210,0,0,253,0,1628701157546,3923,3917,3892,3859,0,0,4,,,,,,,0,0,0,47.00,14.00,617.00,0.00,0.00,581.00,6,96.00,41.59,100.36,37.00,19.00,0.00,0,,,100,100,19,2,0,0,0,2,0,,,,,0.0,0.0,-1
51.999792,-0.454941,9.60,0.00,4.29,10.47,10.00,10.00,4.29,10.47,10112,2021-08-11 16:59:17.646,2021-08-11 17:59:17.646,15,0,0,15.617,51.999699,-0.454963,3.80,2.00,0.00,-4.60,1.60,64.90,0,1,0,93,98,-11134,4084,15617,3011.00,11,P-GPS,1,0,217,0,0,260,0,1628701157646,3923,3917,3892,3859,0,0,4,,,,,,,0,0,0,46.00,16.00,649.00,0.00,0.00,597.00,6,96.00,42.94,104.66,38.00,20.00,0.00,0,,,100,100,19,2,0,0,0,2,0,,,,,0.0,0.0,-1
51.999799,-0.454935,9.60,0.00,4.31,11.30,10.00,10.00,4.31,11.30,10317,2021-08-11 16:59:17.851,2021-08-11 17:59:17.851,15,0,0,15.617,51.999699,-0.454963,3.70,2.20,-0.10,-4.80,1.90,71.00,0,1,0,93,98,-11134,4084,15617,3011.00,11,P-GPS,1,0,207,0,0,259,0,1628701157851,3923,3917,3892,3859,0,0,4,,,,,,,0,0,0,48.00,19.00,710.00,0.00,0.00,644.00,6,96.00,43.06,112.97,37.00,22.00,-1.00,0,,,100,100,19,2,0,0,0,2,0,,,,,0.0,0.0,-1
51.999802,-0.454931,9.60,0.00,4.36,11.73,10.00,10.00,4.36,11.73,10412,2021-08-11 16:59:17.947,2021-08-11 17:59:17.946,15,0,0,15.602,51.999699,-0.454963,3.70,2.30,-0.10,-4.80,1.90,74.30,0,1,0,93,98,-10806,4084,15602,3011.00,11,P-GPS,1,0,207,0,0,261,0,1628701157946,3923,3917,3892,3859,0,0,4,,,,,,,0,0,0,48.00,19.00,743.00,0.00,0.00,671.00,6,96.00,43.58,117.26,37.00,23.00,-1.00,0,,,100,100,19,2,0,0,0,2,0,,,,,0.0,0.0,-1
51.999806,-0.454927,9.60,0.00,4.41,12.15,10.00,10.00,4.41,12.15,10531,2021-08-11 16:59:18.065,2021-08-11 17:59:18.065,15,0,0,15.602,51.999699,-0.454963,3.70,2.40,0.00,-4.80,2.10,77.80,0,1,0,93,98,-10806,4084,15602,3011.00,11,P-GPS,1,0,209,0,0,262,0,1628701158065,3923,3917,3892,3859,0,0,4,,,,,,,0,0,0,48.00,21.00,778.00,0.00,0.00,700.00,6,96.00,44.10,121.45,37.00,24.00,0.00,0,,,100,100,19,2,0,0,0,2,0,,,,,0.0,0.0,-1
51.999809,-0.454924,9.60,0.00,4.33,12.56,10.00,10.00,4.41,12.56,10620,2021-08-11 16:59:18.155,2021-08-11 17:59:18.154,15,0,0,15.602,51.999699,-0.454963,3.60,2.40,-0.10,-4.90,2.30,81.30,0,1,0,93,98,-10806,4084,15602,3011.00,11,P-GPS,1,0,210,0,0,265,0,1628701158154,3923,3917,3892,3859,0,0,4,,,,,,,0,0,0,49.00,23.00,813.00,0.00,0.00,733.00,6,96.00,43.28,125.57,36.00,24.00,-1.00,0,,,100,100,19,2,0,0,0,2,0,,,,,0.0,0.0,-1
51.999812,-0.454920,9.70,0.00,4.38,12.98,10.00,10.00,4.41,12.98,10740,2021-08-11 16:59:18.274,2021-08-11 17:59:18.274,15,0,0,15.602,51.999699,-0.454963,3.50,2.60,-0.10,-5.50,2.20,85.10,0,1,0,93,98,-10806,4084,15602,3011.00,11,P-GPS,1,0,216,0,0,267,0,1628701158274,3923,3917,3892,3859,0,0,4,,,,,,,0,0,0,55.00,22.00,851.00,0.00,0.00,767.00,6,97.00,43.84,129.81,35.00,26.00,-1.00,0,,,100,100,19,2,0,0,0,2,0,,,,,0.0,0.0,-1
51.999822,-0.454907,9.70,0.00,4.48,14.24,10.00,10.00,4.48,14.24,11018,2021-08-11 16:59:18.553,2021-08-11 17:59:18.552,15,0,0,15.602,51.999699,-0.454963,3.50,2.80,-0.10,-7.10,1.50,98.20,0,1,0,93,98,-10806,4084,15602,3011.00,11,P-GPS,1,0,208,0,0,277,0,1628701158552,3923,3917,3892,3859,0,0,4,,,,,,,0,0,0,71.00,15.00,982.00,0.00,0.00,882.00,6,97.00,44.83,142.40,35.00,28.00,-1.00,0,,,100,100,19,2,0,0,0,2,0,,,,,0.0,0.0,-1
51.999825,-0.454903,9.80,0.00,4.47,14.65,10.00,10.00,4.48,14.65,11119,2021-08-11 16:59:18.653,2021-08-11 17:59:18.653,14,0,0,15.602,51.999699,-0.454963,3.40,2.90,-0.10,-7.30,1.70,102.60,0,1,0,93,98,-10806,4084,15602,3011.00,11,P-GPS,1,0,215,0,0,274,0,1628701158653,3923,3917,3892,3859,0,0,4,,,,,,,0,0,0,73.00,17.00,1026.00,0.00,0.00,925.00,6,98.00,44.70,146.51,34.00,29.00,-1.00,0,,,100,100,19,2,0,0,0,2,0,,,,,0.0,0.0,-1
51.999828,-0.454898,9.80,0.00,4.53,15.07,10.00,10.00,4.53,15.07,11220,2021-08-11 16:59:18.754,2021-08-11 17:59:18.754,14,0,0,15.602,51.999699,-0.454963,3.30,3.10,0.00,-7.90,1.70,106.90,0,1,0,93,98,-10806,4084,15602,3011.00,11,P-GPS,1,0,202,0,0,268,0,1628701158754,3923,3917,3892,3859,0,0,4,,,,,,,0,0,0,79.00,17.00,1069.00,0.00,0.00,970.00,6,98.00,45.28,150.67,33.00,31.00,0.00,0,,,100,100,19,2,0,0,0,2,0,,,,,0.0,0.0,-1
51.999831,-0.454893,9.80,0.00,4.53,15.48,10.00,10.00,4.53,15.48,11328,2021-08-11 16:59:18.863,2021-08-11 17:59:18.862,14,0,0,15.602,51.999699,-0.454963,3.20,3.20,-0.10,-8.40,2.20,111.00,0,1,0,93,98,-10806,4084,15602,3011.00,11,P-GPS,1,0,197,0,0,242,0,1628701158862,3923,3917,3892,3859,0,0,4,,,,,,,0,0,0,84.00,22.00,1110.00,0.00,0.00,1013.00,6,98.00,45.27,154.84,32.00,32.00,-1.00,0,,,100,100,19,2,0,0,0,2,0,,,,,0.0,0.0,-1
51.999834,-0.454888,9.80,0.00,4.53,15.90,10.00,10.00,4.53,15.90,11426,2021-08-11 16:59:18.961,2021-08-11 17:59:18.961,14,0,0,15.573,51.999699,-0.454963,3.10,3.30,0.00,-8.90,2.70,114.80,0,1,0,93,98,-11022,4084,15573,3011.00,11,P-GPS,1,0,200,0,0,242,0,1628701158960,3923,3917,3892,3859,0,0,4,,,,,,,0,0,0,89.00,27.00,1148.00,0.00,0.00,1056.00,6,98.00,45.28,159.03,31.00,33.00,0.00,0,,,100,100,19,2,0,0,0,2,0,,,,,0.0,0.0,-1
51.999837,-0.454883,9.80,0.00,4.53,16.31,10.00,10.00,4.53,16.31,11517,2021-08-11 16:59:19.051,2021-08-11 17:59:19.051,14,0,0,15.573,51.999699,-0.454963,3.00,3.40,0.00,-9.10,3.50,117.90,0,1,0,93,98,-11022,4084,15573,3011.00,11,P-GPS,1,0,191,0,0,240,0,1628701159051,3923,3917,3892,3859,0,0,4,,,,,,,0,0,0,91.00,35.00,1179.00,0.00,0.00,1095.00,6,98.00,45.34,163.09,30.00,34.00,0.00,0,,,100,100,19,2,0,0,0,2,0,,,,,0.0,0.0,-1
51.999839,-0.454878,9.80,0.00,4.55,16.71,10.00,10.00,4.55,16.71,11621,2021-08-11 16:59:19.156,2021-08-11 17:59:19.155,14,0,0,15.573,51.999699,-0.454963,2.90,3.50,0.00,-8.90,4.20,120.90,0,1,0,93,98,-11022,4084,15573,3011.00,11,P-GPS,1,0,189,0,0,188,0,1628701159155,3923,3917,3892,3859,0,0,4,,,,,,,0,0,0,89.00,42.00,1209.00,0.00,0.00,1132.00,6,98.00,45.45,167.09,29.00,35.00,0.00,0,,,100,100,19,2,0,0,0,2,0,,,,,0.0,0.0,-1
51.999842,-0.454872,9.80,0.00,4.42,17.11,10.00,10.00,4.55,17.11,11723,2021-08-11 16:59:19.257,2021-08-11 17:59:19.257,14,0,0,15.573,51.999699,-0.454963,2.70,3.50,0.00,-8.10,4.40,123.30,0,1,0,93,98,-11022,4084,15573,3011.00,11,P-GPS,1,0,189,0,0,84,0,1628701159257,3923,3917,3892,3859,0,0,4,,,,,,,0,0,0,81.00,44.00,1233.00,0.00,0.00,1166.00,6,98.00,44.20,171.09,27.00,35.00,0.00,0,,,100,100,19,2,0,0,0,2,0,,,,,0.0,0.0,-1
51.999844,-0.454867,9.80,0.00,4.44,17.49,10.00,10.00,4.55,17.49,11818,2021-08-11 16:59:19.352,2021-08-11 17:59:19.352,14,0,0,15.573,51.999699,-0.454963,2.60,3.60,0.00,-7.40,4.60,124.50,0,1,0,93,98,-11022,4084,15573,3011.00,11,P-GPS,1,0,191,0,0,28,0,1628701159352,3923,3917,3892,3859,0,0,4,,,,,,,0,0,0,74.00,46.00,1245.00,0.00,0.00,1191.00,6,98.00,44.41,174.92,26.00,36.00,0.00,0,,,100,100,19,2,0,0,0,2,0,,,,,0.0,0.0,-1
51.999846,-0.454861,9.80,0.00,4.33,17.86,10.00,10.00,4.55,17.86,11927,2021-08-11 16:59:19.461,2021-08-11 17:59:19.461,14,0,0,15.573,51.999699,-0.454963,2.40,3.60,0.00,-6.70,4.30,124.60,0,1,0,93,98,-11022,4084,15573,3011.00,11,P-GPS,1,0,173,0,0,0,0,1628701159461,3923,3917,3892,3859,0,0,4,,,,,,,0,0,0,67.00,43.00,1246.00,0.00,0.00,1207.00,6,98.00,43.27,178.58,24.00,36.00,0.00,0,,,100,100,19,2,0,0,0,2,0,,,,,0.0,0.0,-1
51.999849,-0.454856,9.80,0.00,4.27,18.24,10.00,10.00,4.55,18.24,12023,2021-08-11 16:59:19.558,2021-08-11 17:59:19.557,14,0,0,15.573,51.999699,-0.454963,2.30,3.60,0.00,-5.70,4.40,124.60,0,1,0,93,98,-11022,4084,15573,3011.00,11,P-GPS,1,0,177,0,0,0,0,1628701159557,3923,3917,3892,3859,0,0,4,,,,,,,0,0,0,57.00,44.00,1246.00,0.00,0.00,1217.00,6,98.00,42.72,182.38,23.00,36.00,0.00,0,,,100,100,19,2,0,0,0,2,0,,,,,0.0,0.0,-1
51.999850,-0.454850,9.80,0.00,4.30,18.58,10.00,10.00,4.55,18.58,12121,2021-08-11 16:59:19.656,2021-08-11 17:59:19.655,14,0,0,15.573,51.999699,-0.454963,2.20,3.70,0.00,-5.30,4.50,124.60,0,1,0,93,98,-11022,4084,15573,3011.00,11,P-GPS,1,0,189,0,0,0,0,1628701159655,3923,3917,3892,3859,0,0,4,,,,,,,0,0,0,53.00,45.00,1246.00,0.00,0.00,1222.00,6,98.00,43.05,185.78,22.00,37.00,0.00,0,,,100,100,19,2,0,0,0,2,0,,,,,0.0,0.0,-1
51.999852,-0.454845,9.80,0.00,4.25,18.93,10.00,10.00,4.55,18.93,12222,2021-08-11 16:59:19.756,2021-08-11 17:59:19.756,14,0,0,15.573,51.999699,-0.454963,2.10,3.70,0.00,-5.70,4.80,124.40,0,1,0,93,98,-11022,4084,15573,3011.00,11,P-GPS,1,0,198,0,0,0,0,1628701159756,3923,3917,3892,3859,0,0,4,,,,,,,0,0,0,57.00,48.00,1244.00,0.00,0.00,1226.00,6,98.00,42.54,189.33,21.00,37.00,0.00,0,,,100,100,19,2,0,0,0,2,0,,,,,0.0,0.0,-1
51.999852,-0.454845,9.80,0.00,4.25,18.93,10.00,10.00,4.55,18.93,12340,2021-08-11 16:59:19.875,2021-08-11 17:59:19.874,14,0,0,15.606,51.999699,-0.454963,2.10,3.70,0.00,-5.70,4.80,124.40,0,1,0,93,98,-10486,4084,15606,3011.00,11,P-GPS,1,0,196,0,0,0,0,1628701159874,3923,3917,3892,3859,0,0,4,,,,,,,0,0,0,57.00,48.00,1244.00,0.00,0.00,1230.00,6,98.00,42.54,189.33,21.00,37.00,0.00,0,,,100,100,19,2,0,0,0,2,0,,,,,0.0,0.0,-1
51.999856,-0.454834,9.80,0.00,4.11,19.61,10.00,10.00,4.55,19.61,12431,2021-08-11 16:59:19.965,2021-08-11 17:59:19.965,14,0,0,15.606,51.999699,-0.454963,1.80,3.70,0.00,-6.70,4.50,124.10,0,1,0,93,98,-10486,4084,15606,3011.00,11,P-GPS,1,0,209,0,0,0,0,1628701159965,3905,3906,3902,3889,0,0,4,,,,,,,0,0,0,67.00,45.00,1241.00,0.00,0.00,1230.00,6,98.00,41.15,196.14,18.00,37.00,0.00,0,,,100,100,19,2,0,0,0,2,0,,,,,0.0,0.0,-1
51.999857,-0.454828,9.80,0.00,4.16,19.92,10.00,10.00,4.55,19.92,12517,2021-08-11 16:59:20.052,2021-08-11 17:59:20.052,15,0,0,15.606,51.999699,-0.454963,1.70,3.80,0.00,-6.90,4.30,124.00,0,1,0,93,98,-10486,4084,15606,3011.00,11,P-GPS,1,0,207,0,0,0,0,1628701160051,3905,3906,3902,3889,0,0,4,,,,,,,0,0,0,69.00,43.00,1240.00,0.00,0.00,1231.00,6,98.00,41.63,199.19,17.00,38.00,0.00,0,,,100,100,19,2,0,0,0,2,0,,,,,0.0,0.0,-1
51.999859,-0.454822,9.80,0.00,4.12,20.26,10.00,10.00,4.55,20.26,12622,2021-08-11 16:59:20.157,2021-08-11 17:59:20.156,15,0,0,15.606,51.999699,-0.454963,1.60,3.80,0.00,-7.00,4.00,124.00,0,1,0,93,98,-10486,4084,15606,3011.00,11,P-GPS,1,0,207,0,0,0,0,1628701160156,3905,3906,3902,3889,0,0,4,,,,,,,0,0,0,70.00,40.00,1240.00,0.00,0.00,1231.00,6,98.00,41.23,202.56,16.00,38.00,0.00,0,,,100,100,19,2,0,0,0,2,0,,,,,0.0,0.0,-1
51.999860,-0.454816,9.80,0.00,4.14,20.56,10.00,10.00,4.55,20.56,12732,2021-08-11 16:59:20.266,2021-08-11 17:59:20.266,15,0,0,15.606,51.999699,-0.454963,1.40,3.90,0.00,-7.10,3.70,124.00,0,1,0,93,98,-10486,4084,15606,3011.00,11,P-GPS,1,0,207,0,0,0,0,1628701160266,3905,3906,3902,3889,0,0,4,,,,,,,0,0,0,71.00,37.00,1240.00,0.00,0.00,1232.00,6,98.00,41.44,205.58,14.00,39.00,0.00,0,,,100,100,19,2,0,0,0,2,0,,,,,0.0,0.0,-1
51.999861,-0.454811,9.80,0.00,4.11,20.88,10.00,10.00,4.55,20.88,12826,2021-08-11 16:59:20.360,2021-08-11 17:59:20.360,14,0,0,15.606,51.999699,-0.454963,1.20,3.90,0.00,-6.70,3.60,124.10,0,1,0,93,98,-10486,4084,15606,3011.00,11,P-GPS,1,0,209,0,0,0,0,1628701160360,3905,3906,3902,3889,0,0,4,,,,,,,0,0,0,67.00,36.00,1241.00,0.00,0.00,1232.00,6,98.00,41.11,208.78,12.00,39.00,0.00,0,,,100,100,19,2,0,0,0,2,0,,,,,0.0,0.0,-1
51.999862,-0.454805,9.90,0.00,4.08,21.16,10.00,10.00,4.55,21.16,12951,2021-08-11 16:59:20.486,2021-08-11 17:59:20.486,14,0,0,15.606,51.999699,-0.454963,1.20,3.90,0.00,-6.80,3.70,124.30,0,1,0,93,98,-10486,4084,15606,3011.00,11,P-GPS,1,0,209,0,0,0,0,1628701160485,3905,3906,3902,3889,0,0,4,,,,,,,0,0,0,68.00,37.00,1243.00,0.00,0.00,1233.00,6,99.00,40.80,211.57,12.00,39.00,0.00,0,,,100,100,19,2,0,0,0,2,0,,,,,0.0,0.0,-1
51.999864,-0.454793,9.90,0.00,4.12,21.74,10.00,10.00,4.55,21.74,13117,2021-08-11 16:59:20.651,2021-08-11 17:59:20.651,14,0,0,15.606,51.999699,-0.454963,1.00,4.00,0.00,-6.90,3.80,124.80,0,1,0,93,98,-10486,4084,15606,3011.00,11,P-GPS,1,0,202,0,0,0,0,1628701160651,3905,3906,3902,3889,0,0,4,,,,,,,0,0,0,69.00,38.00,1248.00,0.00,0.00,1234.00,6,99.00,41.23,217.41,10.00,40.00,0.00,0,,,100,100,19,2,0,0,0,2,0,,,,,0.0,0.0,-1
51.999864,-0.454787,9.90,0.00,4.10,22.04,10.00,10.00,4.55,22.04,13217,2021-08-11 16:59:20.751,2021-08-11 17:59:20.751,14,0,0,15.606,51.999699,-0.454963,0.90,4.00,0.00,-6.40,3.90,125.20,0,1,0,93,98,-10486,4084,15606,3011.00,11,P-GPS,1,0,189,0,0,0,0,1628701160751,3905,3906,3902,3889,0,0,4,,,,,,,0,0,0,64.00,39.00,1252.00,0.00,0.00,1234.00,6,99.00,41.00,220.36,9.00,40.00,0.00,0,,,100,100,19,2,0,0,0,2,0,,,,,0.0,0.0,-1
51.999865,-0.454781,9.90,0.00,4.06,22.29,10.00,10.00,4.55,22.29,13323,2021-08-11 16:59:20.858,2021-08-11 17:59:20.858,15,0,0,15.606,51.999699,-0.454963,0.70,4.00,0.00,-5.80,3.90,125.50,0,1,0,93,98,-10486,4084,15606,3011.00,11,P-GPS,1,0,142,0,0,0,0,1628701160857,3905,3906,3902,3889,0,0,4,,,,,,,0,0,0,58.00,39.00,1255.00,0.00,0.00,1235.00,6,99.00,40.61,222.94,7.00,40.00,0.00,0,,,100,100,19,2,0,0,0,2,0,,,,,0.0,0.0,-1
51.999866,-0.454776,9.80,0.00,4.04,22.58,10.00,10.00,4.55,22.58,13422,2021-08-11 16:59:20.956,2021-08-11 17:59:20.956,15,0,0,15.553,51.999699,-0.454963,0.60,4.00,0.00,-4.50,3.90,125.80,0,1,0,93,98,-11054,4084,15553,3021.00,11,P-GPS,1,0,121,0,0,0,0,1628701160956,3905,3906,3902,3889,0,0,4,,,,,,,0,0,0,45.00,39.00,1258.00,0.00,0.00,1236.00,6,98.00,40.45,225.83,6.00,40.00,0.00,0,,,100,100,19,2,0,0,0,2,0,,,,,0.0,0.0,-1
51.999866,-0.454770,9.80,0.00,3.95,22.83,10.00,10.00,4.55,22.83,13519,2021-08-11 16:59:21.054,2021-08-11 17:59:21.053,15,0,0,15.553,51.999699,-0.454963,0.60,3.90,0.00,-2.50,3.60,126.10,0,1,0,93,98,-11054,4084,15553,3021.00,11,P-GPS,1,0,153,0,0,0,0,1628701161053,3905,3906,3902,3889,0,0,4,,,,,,,0,0,0,25.00,36.00,1261.00,0.00,0.00,1237.00,6,98.00,39.46,228.30,6.00,39.00,0.00,0,,,100,100,19,2,0,0,0,2,0,,,,,0.0,0.0,-1
51.999866,-0.454764,9.80,0.00,3.93,23.11,10.00,10.00,4.55,23.11,13618,2021-08-11 16:59:21.152,2021-08-11 17:59:21.152,15,0,0,15.553,51.999699,-0.454963,0.50,3.90,0.00,-1.70,3.50,126.20,0,1,0,93,98,-11054,4084,15553,3021.00,11,P-GPS,1,0,159,0,0,0,0,1628701161152,3905,3906,3902,3889,0,0,4,,,,,,,0,0,0,17.00,35.00,1262.00,0.00,0.00,1239.00,6,98.00,39.32,231.09,5.00,39.00,0.00,0,,,100,100,19,2,0,0,0,2,0,,,,,0.0,0.0,-1
51.999866,-0.454759,9.80,0.00,3.82,23.35,10.00,10.00,4.55,23.35,13718,2021-08-11 16:59:21.252,2021-08-11 17:59:21.252,15,0,0,15.553,51.999699,-0.454963,0.40,3.80,0.00,-2.20,3.60,126.00,0,1,0,93,98,-11054,4084,15553,3021.00,11,P-GPS,1,0,158,0,0,0,0,1628701161252,3905,3906,3902,3889,0,0,4,,,,,,,0,0,0,22.00,36.00,1260.00,0.00,0.00,1240.00,6,98.00,38.21,233.53,4.00,38.00,0.00,0,,,100,100,19,2,0,0,0,2,0,,,,,0.0,0.0,-1
51.999867,-0.454753,9.80,0.00,3.82,23.61,10.00,10.00,4.55,23.61,13816,2021-08-11 16:59:21.351,2021-08-11 17:59:21.350,15,0,0,15.553,51.999699,-0.454963,0.40,3.80,0.00,-2.70,3.60,125.40,0,1,0,93,98,-11054,4084,15553,3021.00,11,P-GPS,1,0,177,0,0,0,0,1628701161350,3905,3906,3902,3889,0,0,4,,,,,,,0,0,0,27.00,36.00,1254.00,0.00,0.00,1241.00,6,98.00,38.21,236.12,4.00,38.00,0.00,0,,,100,100,19,2,0,0,0,2,0,,,,,0.0,0.0,-1
51.999867,-0.454748,9.80,0.00,3.71,23.84,10.00,10.00,4.55,23.84,13920,2021-08-11 16:59:21.454,2021-08-11 17:59:21.454,15,0,0,15.553,51.999699,-0.454963,0.20,3.70,0.00,-3.40,3.50,124.80,0,1,0,93,98,-11054,4084,15553,3021.00,11,P-GPS,1,0,190,0,0,0,0,1628701161454,3905,3906,3902,3889,0,0,4,,,,,,,0,0,0,34.00,35.00,1248.00,0.00,0.00,1242.00,6,98.00,37.12,238.41,2.00,37.00,0.00,0,,,100,100,19,2,0,0,0,2,0,,,,,0.0,0.0,-1
51.999867,-0.454742,9.80,0.00,3.71,24.10,10.00,10.00,4.55,24.10,14030,2021-08-11 16:59:21.565,2021-08-11 17:59:21.564,15,0,0,15.553,51.999699,-0.454963,0.20,3.70,0.00,-4.70,3.20,124.20,0,1,0,93,98,-11054,4084,15553,3021.00,11,P-GPS,1,0,175,0,0,0,0,1628701161564,3905,3906,3902,3889,0,0,4,,,,,,,0,0,0,47.00,32.00,1242.00,0.00,0.00,1243.00,6,98.00,37.05,240.98,2.00,37.00,0.00,0,,,100,100,19,2,0,0,0,2,0,,,,,0.0,0.0,-1
51.999867,-0.454737,9.80,0.00,3.71,24.32,10.00,10.00,4.55,24.32,14129,2021-08-11 16:59:21.663,2021-08-11 17:59:21.663,15,0,0,15.553,51.999699,-0.454963,0.20,3.70,0.00,-4.80,2.60,123.80,0,1,0,93,98,-11054,4084,15553,3021.00,11,P-GPS,1,0,156,0,0,0,0,1628701161663,3905,3906,3902,3889,0,0,4,,,,,,,0,0,0,48.00,26.00,1238.00,0.00,0.00,1243.00,6,98.00,37.05,243.21,2.00,37.00,0.00,0,,,100,100,19,2,0,0,0,2,0,,,,,0.0,0.0,-1
51.999867,-0.454732,9.80,0.00,3.70,24.58,10.00,10.00,4.55,24.58,14219,2021-08-11 16:59:21.753,2021-08-11 17:59:21.753,15,0,0,15.553,51.999699,-0.454963,0.10,3.70,0.00,-3.80,2.20,123.70,0,1,0,93,98,-11054,4084,15553,3021.00,11,P-GPS,1,0,158,0,0,0,0,1628701161753,3905,3906,3902,3889,0,0,4,,,,,,,0,0,0,38.00,22.00,1237.00,0.00,0.00,1243.00,6,98.00,37.01,245.77,1.00,37.00,0.00,0,,,100,100,19,2,0,0,0,2,0,,,,,0.0,0.0,-1
51.999867,-0.454726,9.80,0.00,3.60,24.81,10.00,10.00,4.55,24.81,14336,2021-08-11 16:59:21.870,2021-08-11 17:59:21.870,15,0,0,15.553,51.999699,-0.454963,0.10,3.60,0.00,-3.30,2.20,123.90,0,1,0,93,98,-11054,4084,15553,3021.00,11,P-GPS,1,0,148,0,0,0,0,1628701161870,3905,3906,3902,3889,0,0,4,,,,,,,0,0,0,33.00,22.00,1239.00,0.00,0.00,1243.00,6,98.00,36.01,248.11,1.00,36.00,0.00,0,,,100,100,19,2,0,0,0,2,0,,,,,0.0,0.0,-1
51.999867,-0.454716,9.80,0.00,3.50,25.30,10.00,10.00,4.55,25.30,14521,2021-08-11 16:59:22.055,2021-08-11 17:59:22.055,14,0,0,15.535,51.999699,-0.454963,0.00,3.50,0.00,-1.90,2.90,124.50,0,1,0,93,98,-11119,4084,15535,3021.00,11,P-GPS,1,0,2,0,0,0,0,1628701162055,3905,3906,3902,3889,0,0,4,,,,,,,0,0,0,19.00,29.00,1245.00,0.00,0.00,1243.00,6,98.00,35.00,252.97,0.00,35.00,0.00,0,,,100,100,19,2,0,0,0,2,0,,,,,0.0,0.0,-1
51.999867,-0.454710,9.90,0.00,3.40,25.54,10.00,10.00,4.55,25.54,14620,2021-08-11 16:59:22.154,2021-08-11 17:59:22.154,14,0,0,15.535,51.999699,-0.454963,0.00,3.40,0.00,0.60,3.00,124.80,0,1,0,93,98,-11119,4084,15535,3021.00,11,P-GPS,1,0,0,0,0,0,0,1628701162154,3905,3906,3902,3889,0,0,4,,,,,,,0,0,0,-6.00,30.00,1248.00,0.00,0.00,1243.00,6,99.00,34.00,255.42,0.00,34.00,0.00,0,,,100,100,19,2,0,0,0,2,0,,,,,0.0,0.0,-1
51.999867,-0.454706,9.90,0.00,3.30,25.77,10.00,10.00,4.55,25.77,14720,2021-08-11 16:59:22.255,2021-08-11 17:59:22.254,14,0,0,15.535,51.999699,-0.454963,0.00,3.30,0.00,2.80,3.40,124.90,0,1,0,93,98,-11119,4084,15535,3021.00,11,P-GPS,1,0,0,0,0,0,0,1628701162254,3905,3906,3902,3889,0,0,4,,,,,,,0,0,0,-28.00,34.00,1249.00,0.00,0.00,1243.00,6,99.00,33.00,257.70,0.00,33.00,0.00,0,,,100,100,19,2,0,0,0,2,0,,,,,0.0,0.0,-1
51.999867,-0.454701,9.90,0.00,3.20,26.00,10.00,10.00,4.55,26.00,14821,2021-08-11 16:59:22.355,2021-08-11 17:59:22.355,14,0,0,15.535,51.999699,-0.454963,0.00,3.20,0.00,5.50,4.90,125.10,0,1,0,93,98,-11119,4084,15535,3021.00,11,P-GPS,1,0,0,0,0,0,0,1628701162355,3905,3906,3902,3889,0,0,4,,,,,,,0,0,0,-55.00,49.00,1251.00,0.00,0.00,1243.00,6,99.00,32.00,259.96,0.00,32.00,0.00,0,,,100,100,19,2,0,0,0,2,0,,,,,0.0,0.0,-1
51.999867,-0.454696,9.90,0.00,3.00,26.20,10.00,10.00,4.55,26.20,14920,2021-08-11 16:59:22.454,2021-08-11 17:59:22.454,14,0,0,15.535,51.999699,-0.454963,0.00,3.00,0.00,8.60,6.90,125.30,0,1,0,93,98,-11119,4084,15535,3021.00,11,P-GPS,1,0,0,0,0,0,0,1628701162454,3905,3906,3902,3889,0,0,4,,,,,,,0,0,0,-86.00,69.00,1253.00,0.00,0.00,1243.00,6,99.00,30.00,262.05,0.00,30.00,0.00,0,,,100,100,19,2,0,0,0,2,0,,,,,0.0,0.0,-1
51.999867,-0.454692,9.90,0.00,2.70,26.41,10.00,10.00,4.55,26.41,15019,2021-08-11 16:59:22.554,2021-08-11 17:59:22.553,14,0,0,15.535,51.999699,-0.454963,0.10,2.70,0.00,11.40,8.90,125.60,0,1,0,93,98,-11119,4084,15535,3021.00,11,P-GPS,1,0,0,0,0,0,0,1628701162553,3905,3906,3902,3889,0,0,4,,,,,,,0,0,0,-114.00,89.00,1256.00,0.00,0.00,1243.00,6,99.00,27.02,264.15,1.00,27.00,0.00,0,,,100,100,19,2,0,0,0,2,0,,,,,0.0,0.0,-1
51.999868,-0.454685,9.90,0.00,2.10,26.76,10.00,10.00,4.55,26.76,15223,2021-08-11 16:59:22.757,2021-08-11 17:59:22.757,14,0,0,15.535,51.999699,-0.454963,0.10,2.10,0.00,14.80,11.60,126.30,0,1,0,93,98,-11119,4084,15535,3021.00,11,P-GPS,1,0,0,0,0,0,0,1628701162757,3905,3906,3902,3889,0,0,4,,,,,,,0,0,0,-148.00,116.00,1263.00,0.00,0.00,1243.00,6,99.00,21.02,267.63,1.00,21.00,0.00,0,,,100,100,19,2,0,0,0,2,0,,,,,0.0,0.0,-1
51.999868,-0.454683,9.90,0.00,1.80,26.90,10.00,10.00,4.55,26.90,15320,2021-08-11 16:59:22.855,2021-08-11 17:59:22.854,14,0,0,15.535,51.999699,-0.454963,0.10,1.80,0.00,15.00,13.00,126.70,0,1,0,93,98,-11119,4084,15535,3021.00,11,P-GPS,1,0,0,0,0,0,0,1628701162854,3905,3906,3902,3889,0,0,4,,,,,,,0,0,0,-150.00,130.00,1267.00,0.00,0.00,1243.00,6,99.00,18.03,269.00,1.00,18.00,0.00,0,,,100,100,19,2,0,0,0,2,0,,,,,0.0,0.0,-1
51.999868,-0.454680,9.90,0.00,1.50,27.04,10.00,10.00,4.55,27.04,15425,2021-08-11 16:59:22.960,2021-08-11 17:59:22.959,14,0,0,15.556,51.999699,-0.454963,0.10,1.50,0.00,14.80,13.90,127.00,0,1,0,93,98,-10962,4084,15556,3021.00,11,P-GPS,1,0,0,0,0,0,0,1628701162959,3905,3906,3902,3889,0,0,4,,,,,,,0,0,0,-148.00,139.00,1270.00,0.00,0.00,1243.00,6,99.00,15.03,270.39,1.00,15.00,0.00,0,,,100,100,19,2,0,0,0,2,0,,,,,0.0,0.0,-1
51.999868,-0.454679,9.90,0.00,1.20,27.13,10.00,10.00,4.55,27.13,15526,2021-08-11 16:59:23.060,2021-08-11 17:59:23.060,14,0,0,15.556,51.999699,-0.454963,0.10,1.20,0.00,13.40,13.70,127.00,0,1,0,93,98,-10962,4084,15556,3021.00,11,P-GPS,1,0,0,0,0,0,0,1628701163060,3905,3906,3902,3889,0,0,4,,,,,,,0,0,0,-134.00,137.00,1270.00,0.00,0.00,1242.00,6,99.00,12.04,271.29,1.00,12.00,0.00,0,,,100,100,19,2,0,0,0,2,0,,,,,0.0,0.0,-1
51.999868,-0.454677,9.90,0.00,0.91,27.22,10.00,10.00,4.55,27.22,15620,2021-08-11 16:59:23.155,2021-08-11 17:59:23.155,14,0,0,15.556,51.999699,-0.454963,0.10,0.90,0.00,11.20,12.40,126.60,0,1,0,93,98,-10962,4084,15556,3021.00,11,P-GPS,1,0,0,0,0,0,0,1628701163154,3905,3906,3902,3889,0,0,4,,,,,,,0,0,0,-112.00,124.00,1266.00,0.00,0.00,1242.00,6,99.00,9.06,272.19,1.00,9.00,0.00,0,,,100,100,19,2,0,0,0,2,0,,,,,0.0,0.0,-1
51.999868,-0.454676,10.00,0.00,0.71,27.28,10.00,10.00,4.55,27.28,15716,2021-08-11 16:59:23.250,2021-08-11 17:59:23.250,14,0,0,15.556,51.999699,-0.454963,0.10,0.70,0.00,9.00,10.90,126.00,0,1,0,93,98,-10962,4084,15556,3021.00,11,P-GPS,1,0,0,0,0,0,0,1628701163250,3905,3906,3902,3889,0,0,4,,,,,,,0,0,0,-90.00,109.00,1260.00,0.00,0.00,1242.00,6,100.00,7.07,272.81,1.00,7.00,0.00,0,,,100,100,19,2,0,0,0,2,0,,,,,0.0,0.0,-1
51.999869,-0.454675,10.00,0.00,0.51,27.34,10.00,10.00,4.55,27.34,15817,2021-08-11 16:59:23.351,2021-08-11 17:59:23.351,14,0,0,15.556,51.999699,-0.454963,0.10,0.50,0.00,6.80,9.40,125.30,0,1,0,93,98,-10962,4084,15556,3021.00,11,P-GPS,1,0,0,0,0,0,0,1628701163351,3905,3906,3902,3889,0,0,4,,,,,,,0,0,0,-68.00,94.00,1253.00,0.00,0.00,1242.00,6,100.00,5.10,273.39,1.00,5.00,0.00,0,,,100,100,19,2,0,0,0,2,0,,,,,0.0,0.0,-1
51.999869,-0.454676,10.00,0.00,0.41,27.34,10.00,10.00,4.55,27.34,15927,2021-08-11 16:59:23.462,2021-08-11 17:59:23.461,15,0,0,15.556,51.999699,-0.454963,0.10,0.40,0.00,4.60,7.90,125.00,0,1,0,93,98,-10962,4084,15556,3021.00,11,P-GPS,1,0,0,0,0,0,0,1628701163461,3905,3906,3902,3889,0,0,4,,,,,,,0,0,0,-46.00,79.00,1250.00,0.00,0.00,1242.00,6,100.00,4.12,273.43,1.00,4.00,0.00,0,,,100,100,19,2,0,0,0,2,0,,,,,0.0,0.0,-1
51.999869,-0.454675,10.00,0.00,0.32,27.41,10.00,10.00,4.55,27.41,16021,2021-08-11 16:59:23.556,2021-08-11 17:59:23.555,15,0,0,15.556,51.999699,-0.454963,0.10,0.20,0.00,2.80,6.80,125.30,0,1,0,93,98,-10962,4084,15556,3021.00,11,P-GPS,1,0,0,0,0,0,0,1628701163555,3905,3906,3902,3889,0,0,4,,,,,,,0,0,0,-28.00,68.00,1253.00,0.00,0.00,1242.00,6,100.00,3.16,274.11,1.00,2.00,0.00,0,,,100,100,19,2,0,0,0,2,0,,,,,0.0,0.0,-1
51.999869,-0.454675,10.00,0.00,0.22,27.40,10.00,10.00,4.55,27.41,16123,2021-08-11 16:59:23.657,2021-08-11 17:59:23.657,15,0,0,15.556,51.999699,-0.454963,0.10,0.20,0.00,1.40,5.70,125.60,0,1,0,93,98,-10962,4084,15556,3021.00,11,P-GPS,1,0,0,0,0,0,0,1628701163657,3905,3906,3902,3889,0,0,4,,,,,,,0,0,0,-14.00,57.00,1256.00,0.00,0.00,1242.00,6,100.00,2.24,274.04,1.00,2.00,0.00,0,,,100,100,19,2,0,0,0,2,0,,,,,0.0,0.0,-1
