latitude,longitude,altitude(m),ultrasonicHeight(m),speed(mps),distance(m),max_altitude(m),max_ascent(m),max_speed(mps),max_distance(m),time(millisecond),datetime(utc),datetime(local),satellites,pressure(Pa),temperature(F),voltage(v),home_latitude,home_longitude,velocityX(mps),velocityY(mps),velocityZ(mps),pitch(deg),roll(deg),yaw(deg),powerlevel,isflying,istakingphoto,remainPowerPercent,remainLifePercent,currentCurrent,currentElectricity,currentVoltage,batteryTemperature,dischargeCount,flightmode,isMotorsOn,isTakingVideo,Rc_elevator,Rc_aileron,Rc_throttle,Rc_rudder,Rc_gyro,timestamp,Battery_Cell1,Battery_Cell2,Battery_Cell3,Battery_Cell4,Battery_Cell5,Battery_Cell6,Dronetype,AppVersion,Planename,FlyControllerSerialNumber,RemoteSerialNumber,BatterySerialNumber,CENTER_BATTERY.productDate,CENTER_BATTERY.serialNo,CENTER_BATTERY.fullCapacity,CENTER_BATTERY.productDateRaw,pitchRaw,rollRaw,yawRaw,gimbalPitchRaw,gimbalRollRaw,gimbalYawRaw,flyState,altitudeRaw,speedRaw,distanceRaw,velocityXRaw,velocityYRaw,velocityZRaw,data_reuse,App_Tip,App_Warning,downlinkSignalQuality,uplinkSignalQuality,transmissionChannel,rcModeSwitch,rcHome,rcPause,rcTransform,rcJoystickMode,appMode,FlyControllerSerialNumber_legacy,RemoteSerialNumber_legacy,BatterySerialNumber_legacy,Battery2SerialNumber,frontAvoidDist,backAvoidDist,isBrakingToAvoid
51.999726,-0.454929,1.30,1.30,1.39,0.48,1.30,1.30,1.39,0.48,0,2021-08-11 17:18:09.342,2021-08-11 18:18:09.342,16,0,0,16.612,51.999723,-0.454935,0.30,0.20,-1.30,3.80,-7.90,-10.90,0,1,0,93,100,-1668,4001,16612,2991.00,3,P-GPS,1,0,0,0,281,0,0,1628702289342,4158,4131,4199,4182,0,0,4,Litchi_4.18.0-g,Airspeed Phantom 3 Pro,03Z1361171,078JBS7306,6171163421965,2016-01-18,809,4303,18482,-38.00,-79.00,-109.00,0.00,0.00,-112.00,6,13.00,13.93,4.84,3.00,2.00,-13.00,0,,,100,100,19,2,0,0,0,2,3,,,,null,0.0,0.0,-1
51.999726,-0.454929,1.40,1.50,1.35,0.53,1.40,1.40,1.39,0.53,132,2021-08-11 17:18:09.475,2021-08-11 18:18:09.474,16,0,0,16.612,51.999723,-0.454935,0.30,0.20,-1.30,4.90,-7.50,-11.10,0,1,0,93,100,-1668,4001,16612,2991.00,3,P-GPS,1,0,0,0,299,0,0,1628702289474,4158,4131,4199,4182,0,0,4,,,,,,,0,0,0,-49.00,-75.00,-111.00,0.00,0.00,-112.00,6,14.00,13.49,5.34,3.00,2.00,-13.00,0,,,100,100,19,2,0,0,0,2,3,,,,,0.0,0.0,-1
51.999726,-0.454929,1.60,1.70,1.53,0.57,1.60,1.60,1.53,0.57,200,2021-08-11 17:18:09.542,2021-08-11 18:18:09.542,16,0,0,16.612,51.999723,-0.454935,0.30,0.10,-1.50,5.60,-7.30,-11.20,0,1,0,93,100,-1668,4001,16612,2991.00,3,P-GPS,1,0,0,0,299,0,0,1628702289542,4158,4131,4199,4182,0,0,4,,,,,,,0,0,0,-56.00,-73.00,-112.00,0.00,0.00,-112.00,6,16.00,15.33,5.72,3.00,1.00,-15.00,0,,,100,100,19,2,0,0,0,2,3,,,,,0.0,0.0,-1
51.999727,-0.454929,1.70,1.90,1.53,0.61,1.70,1.70,1.53,0.61,308,2021-08-11 17:18:09.650,2021-08-11 18:18:09.650,16,0,0,16.612,51.999723,-0.454935,0.30,0.10,-1.50,5.50,-7.00,-11.10,0,1,0,93,100,-1668,4001,16612,2991.00,3,P-GPS,1,0,0,0,287,0,0,1628702289650,4158,4131,4199,4182,0,0,4,,,,,,,0,0,0,-55.00,-70.00,-111.00,0.00,0.00,-111.00,6,17.00,15.33,6.15,3.00,1.00,-15.00,0,,,100,100,19,2,0,0,0,2,3,,,,,0.0,0.0,-1
51.999727,-0.454929,1.90,2.10,1.52,0.64,1.90,1.90,1.53,0.64,400,2021-08-11 17:18:09.742,2021-08-11 18:18:09.742,16,0,0,16.612,51.999723,-0.454935,0.20,0.10,-1.50,5.60,-6.50,-11.20,0,1,0,93,100,-1668,4001,16612,2991.00,3,P-GPS,1,0,0,0,267,0,0,1628702289742,4158,4131,4199,4182,0,0,4,,,,,,,0,0,0,-56.00,-65.00,-112.00,0.00,0.00,-111.00,6,19.00,15.17,6.44,2.00,1.00,-15.00,0,,,100,100,19,2,0,0,0,2,3,,,,,0.0,0.0,-1
51.999727,-0.454928,2.10,2.20,1.52,0.68,2.10,2.10,1.53,0.68,499,2021-08-11 17:18:09.842,2021-08-11 18:18:09.841,16,0,0,16.627,51.999723,-0.454935,0.20,0.10,-1.50,6.00,-6.30,-11.30,0,1,0,93,100,-1652,4001,16627,2991.00,3,P-GPS,1,0,0,0,256,0,0,1628702289841,4158,4131,4199,4182,0,0,4,,,,,,,0,0,0,-60.00,-63.00,-113.00,0.00,0.00,-111.00,6,21.00,15.17,6.81,2.00,1.00,-15.00,0,,,100,100,19,2,0,0,0,2,3,,,,,0.0,0.0,-1
51.999728,-0.454928,2.20,2.30,1.42,0.71,2.20,2.20,1.53,0.71,603,2021-08-11 17:18:09.946,2021-08-11 18:18:09.945,16,0,0,16.627,51.999723,-0.454935,0.20,0.10,-1.40,6.40,-6.10,-11.40,0,1,0,93,100,-1652,4001,16627,2991.00,3,P-GPS,1,0,0,0,244,0,0,1628702289945,4158,4131,4199,4182,0,0,4,,,,,,,0,0,0,-64.00,-61.00,-114.00,0.00,0.00,-111.00,6,22.00,14.18,7.07,2.00,1.00,-14.00,0,,,100,100,19,2,0,0,0,2,3,,,,,0.0,0.0,-1
51.999728,-0.454928,2.40,2.50,1.30,0.72,2.40,2.40,1.53,0.72,702,2021-08-11 17:18:10.044,2021-08-11 18:18:10.044,16,0,0,16.627,51.999723,-0.454935,0.10,0.00,-1.30,6.80,-6.60,-11.60,0,1,0,93,100,-1652,4001,16627,2991.00,3,P-GPS,1,0,0,1,261,0,0,1628702290044,4158,4131,4199,4182,0,0,4,,,,,,,0,0,0,-68.00,-66.00,-116.00,0.00,0.00,-111.00,6,24.00,13.04,7.21,1.00,0.00,-13.00,0,,,100,100,19,2,0,0,0,2,3,,,,,0.0,0.0,-1
51.999728,-0.454928,2.50,2.70,1.20,0.76,2.50,2.50,1.53,0.76,802,2021-08-11 17:18:10.145,2021-08-11 18:18:10.144,16,0,0,16.627,51.999723,-0.454935,0.10,0.00,-1.20,6.90,-6.50,-11.70,0,1,0,93,100,-1652,4001,16627,2991.00,3,P-GPS,1,0,0,0,271,0,0,1628702290144,4158,4131,4199,4182,0,0,4,,,,,,,0,0,0,-69.00,-65.00,-117.00,0.00,0.00,-111.00,6,25.00,12.04,7.56,1.00,0.00,-12.00,0,,,100,100,19,2,0,0,0,2,3,,,,,0.0,0.0,-1
51.999728,-0.454928,2.60,2.80,1.20,0.77,2.60,2.60,1.53,0.77,910,2021-08-11 17:18:10.253,2021-08-11 18:18:10.252,16,0,0,16.627,51.999723,-0.454935,0.00,0.00,-1.20,6.50,-6.10,-11.60,0,1,0,93,100,-1652,4001,16627,2991.00,3,P-GPS,1,0,0,0,261,0,0,1628702290252,4158,4131,4199,4182,0,0,4,,,,,,,0,0,0,-65.00,-61.00,-116.00,0.00,0.00,-111.00,6,26.00,12.00,7.71,0.00,0.00,-12.00,0,,,100,100,19,2,0,0,0,2,3,,,,,0.0,0.0,-1
51.999728,-0.454928,2.70,2.80,1.20,0.78,2.70,2.70,1.53,0.78,999,2021-08-11 17:18:10.341,2021-08-11 18:18:10.341,16,0,0,16.627,51.999723,-0.454935,0.00,0.00,-1.20,6.00,-6.00,-11.50,0,1,0,93,100,-1652,4001,16627,2991.00,3,P-GPS,1,0,0,0,287,0,0,1628702290341,4158,4131,4199,4182,0,0,4,,,,,,,0,0,0,-60.00,-60.00,-115.00,0.00,0.00,-111.00,6,27.00,12.00,7.78,0.00,0.00,-12.00,0,,,100,100,19,2,0,0,0,2,3,,,,,0.0,0.0,-1
51.999728,-0.454928,2.90,0.00,1.20,0.77,2.90,2.90,1.53,0.78,1104,2021-08-11 17:18:10.446,2021-08-11 18:18:10.446,16,0,0,16.627,51.999723,-0.454935,0.00,0.00,-1.20,5.80,-5.70,-11.50,0,1,0,93,100,-1652,4001,16627,2991.00,3,P-GPS,1,0,0,0,270,0,0,1628702290446,4158,4131,4199,4182,0,0,4,,,,,,,0,0,0,-58.00,-57.00,-115.00,0.00,0.00,-111.00,6,29.00,12.00,7.73,0.00,0.00,-12.00,0,,,100,100,19,2,0,0,0,2,3,,,,,0.0,0.0,-1
51.999728,-0.454928,3.00,0.00,1.20,0.77,3.00,3.00,1.53,0.78,1216,2021-08-11 17:18:10.558,2021-08-11 18:18:10.558,16,0,0,16.627,51.999723,-0.454935,0.00,0.00,-1.20,5.60,-5.30,-11.50,0,1,0,93,100,-1652,4001,16627,2991.00,3,P-GPS,1,0,0,1,235,0,0,1628702290558,4158,4131,4199,4182,0,0,4,,,,,,,0,0,0,-56.00,-53.00,-115.00,0.00,0.00,-111.00,6,30.00,12.00,7.70,0.00,0.00,-12.00,0,,,100,100,19,2,0,0,0,2,3,,,,,0.0,0.0,-1
51.999728,-0.454928,3.10,0.00,1.10,0.74,3.10,3.10,1.53,0.78,1305,2021-08-11 17:18:10.648,2021-08-11 18:18:10.647,14,0,0,16.627,51.999723,-0.454935,0.00,0.00,-1.10,5.10,-5.50,-11.40,0,1,0,93,100,-1652,4001,16627,2991.00,3,P-GPS,1,0,0,0,277,0,0,1628702290647,4158,4131,4199,4182,0,0,4,,,,,,,0,0,0,-51.00,-55.00,-114.00,0.00,0.00,-111.00,6,31.00,11.00,7.36,0.00,0.00,-11.00,0,,,100,100,19,2,0,0,0,2,3,,,,,0.0,0.0,-1
51.999728,-0.454928,3.20,0.00,1.10,0.73,3.20,3.20,1.53,0.78,1401,2021-08-11 17:18:10.743,2021-08-11 18:18:10.743,14,0,0,16.627,51.999723,-0.454935,0.00,0.00,-1.10,4.50,-5.50,-11.20,0,1,0,93,100,-1652,4001,16627,2991.00,3,P-GPS,1,0,0,0,259,0,0,1628702290743,4158,4131,4199,4182,0,0,4,,,,,,,0,0,0,-45.00,-55.00,-112.00,0.00,0.00,-111.00,6,32.00,11.00,7.31,0.00,0.00,-11.00,0,,,100,100,19,2,0,0,0,2,3,,,,,0.0,0.0,-1
51.999728,-0.454929,3.30,0.00,1.10,0.73,3.30,3.30,1.53,0.78,1502,2021-08-11 17:18:10.844,2021-08-11 18:18:10.844,15,0,0,15.858,51.999723,-0.454935,0.00,0.00,-1.10,3.30,-5.60,-11.10,0,1,0,93,100,-10114,4001,15858,2991.00,3,P-GPS,1,0,0,0,260,0,0,1628702290844,4158,4131,4199,4182,0,0,4,,,,,,,0,0,0,-33.00,-56.00,-111.00,0.00,0.00,-111.00,6,33.00,11.00,7.27,0.00,0.00,-11.00,0,,,100,100,19,2,0,0,0,2,3,,,,,0.0,0.0,-1
51.999728,-0.454929,3.60,0.00,1.10,0.67,3.60,3.60,1.53,0.78,1699,2021-08-11 17:18:11.041,2021-08-11 18:18:11.041,15,0,0,15.858,51.999723,-0.454935,0.00,-0.10,-1.10,3.20,-5.40,-11.50,0,1,0,93,100,-10114,4001,15858,2991.00,3,P-GPS,1,0,0,0,254,0,0,1628702291041,4158,4131,4199,4182,0,0,4,,,,,,,0,0,0,-32.00,-54.00,-115.00,0.00,0.00,-111.00,6,36.00,11.05,6.74,0.00,-1.00,-11.00,0,,,100,100,19,2,0,0,0,2,3,,,,,0.0,0.0,-1
51.999728,-0.454929,3.70,0.00,1.10,0.66,3.70,3.70,1.53,0.78,1800,2021-08-11 17:18:11.143,2021-08-11 18:18:11.142,15,0,0,15.858,51.999723,-0.454935,0.00,-0.10,-1.10,2.80,-4.20,-12.00,0,1,0,93,100,-10114,4001,15858,2991.00,3,P-GPS,1,0,0,0,251,0,0,1628702291142,4158,4131,4199,4182,0,0,4,,,,,,,0,0,0,-28.00,-42.00,-120.00,0.00,0.00,-111.00,6,37.00,11.05,6.59,0.00,-1.00,-11.00,0,,,100,100,19,2,0,0,0,2,3,,,,,0.0,0.0,-1
51.999728,-0.454930,3.80,0.00,1.10,0.64,3.80,3.80,1.53,0.78,1900,2021-08-11 17:18:11.242,2021-08-11 18:18:11.242,15,0,0,15.858,51.999723,-0.454935,0.00,-0.10,-1.10,3.00,-4.00,-12.30,0,1,0,93,100,-10114,4001,15858,2991.00,3,P-GPS,1,0,0,0,262,0,0,1628702291242,4158,4131,4199,4182,0,0,4,,,,,,,0,0,0,-30.00,-40.00,-123.00,0.00,0.00,-111.00,6,38.00,11.05,6.38,0.00,-1.00,-11.00,0,,,100,100,19,2,0,0,0,2,3,,,,,0.0,0.0,-1
51.999727,-0.454930,3.90,0.00,1.10,0.61,3.90,3.90,1.53,0.78,1999,2021-08-11 17:18:11.341,2021-08-11 18:18:11.341,15,0,0,15.858,51.999723,-0.454935,0.00,0.00,-1.10,2.70,-4.00,-12.40,0,1,0,93,100,-10114,4001,15858,2991.00,3,P-GPS,1,0,0,0,247,0,0,1628702291341,4158,4131,4199,4182,0,0,4,,,,,,,0,0,0,-27.00,-40.00,-124.00,0.00,0.00,-111.00,6,39.00,11.00,6.07,0.00,0.00,-11.00,0,,,100,100,19,2,0,0,0,2,3,,,,,0.0,0.0,-1
51.999727,-0.454930,4.00,0.00,1.00,0.58,4.00,4.00,1.53,0.78,2100,2021-08-11 17:18:11.443,2021-08-11 18:18:11.442,16,0,0,15.858,51.999723,-0.454935,0.00,0.00,-1.00,3.00,-4.10,-12.20,0,1,0,93,100,-10114,4001,15858,2991.00,3,P-GPS,1,0,0,0,231,0,0,1628702291442,4158,4131,4199,4182,0,0,4,,,,,,,0,0,0,-30.00,-41.00,-122.00,0.00,0.00,-111.00,6,40.00,10.00,5.83,0.00,0.00,-10.00,0,,,100,100,19,2,0,0,0,2,3,,,,,0.0,0.0,-1
51.999727,-0.454931,4.20,0.00,1.20,0.57,4.20,4.20,1.53,0.78,2202,2021-08-11 17:18:11.545,2021-08-11 18:18:11.544,16,0,0,15.858,51.999723,-0.454935,0.00,-0.10,-1.20,3.20,-4.10,-11.90,0,1,0,93,100,-10114,4001,15858,2991.00,3,P-GPS,1,0,0,0,249,0,0,1628702291544,4158,4131,4199,4182,0,0,4,,,,,,,0,0,0,-32.00,-41.00,-119.00,0.00,0.00,-111.00,6,42.00,12.04,5.72,0.00,-1.00,-12.00,0,,,100,100,19,2,0,0,0,2,3,,,,,0.0,0.0,-1
51.999727,-0.454931,4.40,0.00,1.10,0.52,4.40,4.40,1.53,0.78,2402,2021-08-11 17:18:11.744,2021-08-11 18:18:11.744,15,0,0,15.858,51.999723,-0.454935,0.00,-0.10,-1.10,2.90,-3.60,-11.40,0,1,0,93,100,-10114,4001,15858,2991.00,3,P-GPS,1,0,0,1,272,0,0,1628702291744,4158,4131,4199,4182,0,0,4,,,,,,,0,0,0,-29.00,-36.00,-114.00,0.00,0.00,-111.00,6,44.00,11.05,5.16,0.00,-1.00,-11.00,0,,,100,100,19,2,0,0,0,2,3,,,,,0.0,0.0,-1
51.999727,-0.454931,4.50,0.00,1.12,0.51,4.50,4.50,1.53,0.78,2499,2021-08-11 17:18:11.842,2021-08-11 18:18:11.841,15,0,0,15.740,51.999723,-0.454935,0.00,-0.20,-1.10,2.70,-3.30,-11.30,0,1,0,93,100,-10923,4001,15740,2991.00,3,P-GPS,1,0,0,0,256,0,0,1628702291841,4158,4131,4199,4182,0,0,4,,,,,,,0,0,0,-27.00,-33.00,-113.00,0.00,0.00,-111.00,6,45.00,11.18,5.14,0.00,-2.00,-11.00,0,,,100,100,19,2,0,0,0,2,3,,,,,0.0,0.0,-1
51.999727,-0.454932,4.60,0.00,1.22,0.49,4.60,4.60,1.53,0.78,2599,2021-08-11 17:18:11.941,2021-08-11 18:18:11.941,15,0,0,15.740,51.999723,-0.454935,0.00,-0.20,-1.20,3.00,-2.50,-11.40,0,1,0,93,100,-10923,4001,15740,2991.00,3,P-GPS,1,0,0,0,261,0,0,1628702291941,4158,4131,4199,4182,0,0,4,,,,,,,0,0,0,-30.00,-25.00,-114.00,0.00,0.00,-112.00,6,46.00,12.17,4.85,0.00,-2.00,-12.00,0,,,100,100,19,2,0,0,0,2,3,,,,,0.0,0.0,-1
51.999727,-0.454933,4.70,0.00,1.22,0.45,4.70,4.70,1.53,0.78,2702,2021-08-11 17:18:12.045,2021-08-11 18:18:12.044,15,0,0,15.740,51.999723,-0.454935,0.00,-0.20,-1.20,3.80,-2.20,-11.20,0,1,0,93,100,-10923,4001,15740,2991.00,3,P-GPS,1,0,0,0,246,0,0,1628702292044,4158,4131,4199,4182,0,0,4,,,,,,,0,0,0,-38.00,-22.00,-112.00,0.00,0.00,-111.00,6,47.00,12.17,4.49,0.00,-2.00,-12.00,0,,,100,100,19,2,0,0,0,2,3,,,,,0.0,0.0,-1
51.999727,-0.454933,4.90,0.00,1.10,0.45,4.90,4.90,1.53,0.78,2801,2021-08-11 17:18:12.144,2021-08-11 18:18:12.143,15,0,0,15.740,51.999723,-0.454935,0.00,-0.10,-1.10,4.40,-1.50,-11.10,0,1,0,93,100,-10923,4001,15740,2991.00,3,P-GPS,1,0,0,0,239,0,0,1628702292143,4158,4131,4199,4182,0,0,4,,,,,,,0,0,0,-44.00,-15.00,-111.00,0.00,0.00,-111.00,6,49.00,11.05,4.48,0.00,-1.00,-11.00,0,,,100,100,19,2,0,0,0,2,3,,,,,0.0,0.0,-1
51.999727,-0.454933,5.00,0.00,1.01,0.44,5.00,5.00,1.53,0.78,2900,2021-08-11 17:18:12.242,2021-08-11 18:18:12.242,17,0,0,15.740,51.999723,-0.454935,0.10,-0.10,-1.00,5.20,-1.80,-10.90,0,1,0,93,100,-10923,4001,15740,2991.00,3,P-GPS,1,0,0,0,141,0,0,1628702292242,4158,4131,4199,4182,0,0,4,,,,,,,0,0,0,-52.00,-18.00,-109.00,0.00,0.00,-111.00,6,50.00,10.10,4.44,1.00,-1.00,-10.00,0,,,100,100,19,2,0,0,0,2,3,,,,,0.0,0.0,-1
51.999727,-0.454934,5.10,0.00,0.81,0.45,5.10,5.10,1.53,0.78,2998,2021-08-11 17:18:12.340,2021-08-11 18:18:12.340,17,0,0,15.740,51.999723,-0.454935,0.10,-0.10,-0.80,5.40,-2.10,-10.90,0,1,0,93,100,-10923,4001,15740,2991.00,3,P-GPS,1,0,0,0,11,0,0,1628702292340,3912,3904,3983,3966,0,0,4,,,,,,,0,0,0,-54.00,-21.00,-109.00,0.00,0.00,-111.00,6,51.00,8.12,4.51,1.00,-1.00,-8.00,0,,,100,100,19,2,0,0,0,2,3,,,,,0.0,0.0,-1
51.999727,-0.454934,5.10,0.00,0.51,0.45,5.10,5.10,1.53,0.78,3107,2021-08-11 17:18:12.449,2021-08-11 18:18:12.449,16,0,0,15.740,51.999723,-0.454935,0.00,-0.10,-0.50,5.70,-2.30,-11.00,0,1,0,93,100,-10923,4001,15740,2991.00,3,P-GPS,1,0,0,0,0,0,0,1628702292449,3912,3904,3983,3966,0,0,4,,,,,,,0,0,0,-57.00,-23.00,-110.00,0.00,0.00,-111.00,6,51.00,5.10,4.54,0.00,-1.00,-5.00,0,,,100,100,19,2,0,0,0,2,3,,,,,0.0,0.0,-1
51.999727,-0.454934,5.20,0.00,0.32,0.45,5.20,5.20,1.53,0.78,3199,2021-08-11 17:18:12.542,2021-08-11 18:18:12.541,16,0,0,15.740,51.999723,-0.454935,0.00,-0.10,-0.30,6.10,-2.20,-11.20,0,1,0,93,100,-10923,4001,15740,2991.00,3,P-GPS,1,0,0,0,0,0,0,1628702292541,3912,3904,3983,3966,0,0,4,,,,,,,0,0,0,-61.00,-22.00,-112.00,0.00,0.00,-111.00,6,52.00,3.16,4.47,0.00,-1.00,-3.00,0,,,100,100,19,2,0,0,0,2,3,,,,,0.0,0.0,-1
51.999727,-0.454935,5.20,0.00,0.32,0.46,5.20,5.20,1.53,0.78,3308,2021-08-11 17:18:12.651,2021-08-11 18:18:12.650,16,0,0,15.740,51.999723,-0.454935,0.00,0.00,-0.20,6.00,-1.80,-11.30,0,1,0,93,100,-10923,4001,15740,2991.00,3,P-GPS,1,0,0,0,0,0,0,1628702292650,3912,3904,3983,3966,0,0,4,,,,,,,0,0,0,-60.00,-18.00,-113.00,0.00,0.00,-111.00,6,52.00,3.16,4.61,0.00,0.00,-2.00,0,,,100,100,19,2,0,0,0,2,3,,,,,0.0,0.0,-1
51.999727,-0.454935,5.20,0.00,0.20,0.47,5.20,5.20,1.53,0.78,3407,2021-08-11 17:18:12.749,2021-08-11 18:18:12.749,16,0,0,15.740,51.999723,-0.454935,0.00,0.00,-0.20,5.60,-1.70,-11.40,0,1,0,93,100,-10923,4001,15740,2991.00,3,P-GPS,1,0,0,0,0,0,0,1628702292749,3912,3904,3983,3966,0,0,4,,,,,,,0,0,0,-56.00,-17.00,-114.00,0.00,0.00,-111.00,6,52.00,2.00,4.67,0.00,0.00,-2.00,0,,,100,100,19,2,0,0,0,2,3,,,,,0.0,0.0,-1
51.999727,-0.454935,5.20,0.00,0.20,0.46,5.20,5.20,1.53,0.78,3520,2021-08-11 17:18:12.863,2021-08-11 18:18:12.862,17,0,0,15.652,51.999723,-0.454935,0.00,0.00,-0.20,5.60,-1.60,-11.40,0,1,0,93,100,-11408,4001,15652,2991.00,3,P-GPS,1,0,0,0,0,0,0,1628702292862,3912,3904,3983,3966,0,0,4,,,,,,,0,0,0,-56.00,-16.00,-114.00,0.00,0.00,-111.00,6,52.00,2.00,4.62,0.00,0.00,-2.00,0,,,100,100,19,2,0,0,0,2,3,,,,,0.0,0.0,-1
51.999727,-0.454935,5.30,0.00,0.20,0.46,5.30,5.30,1.53,0.78,3705,2021-08-11 17:18:13.047,2021-08-11 18:18:13.047,16,0,0,15.652,51.999723,-0.454935,0.00,0.00,-0.20,4.50,-2.40,-11.20,0,1,0,93,100,-11408,4001,15652,2991.00,3,P-GPS,1,0,0,0,0,0,0,1628702293047,3912,3904,3983,3966,0,0,4,,,,,,,0,0,0,-45.00,-24.00,-112.00,0.00,0.00,-111.00,6,53.00,2.00,4.59,0.00,0.00,-2.00,0,,,100,100,19,2,0,0,0,2,3,,,,,0.0,0.0,-1
51.999727,-0.454935,5.30,0.00,0.10,0.46,5.30,5.30,1.53,0.78,3803,2021-08-11 17:18:13.145,2021-08-11 18:18:13.145,16,0,0,15.652,51.999723,-0.454935,0.00,0.00,-0.10,4.40,-2.60,-11.30,0,1,0,93,100,-11408,4001,15652,2991.00,3,P-GPS,1,0,0,0,0,0,0,1628702293145,3912,3904,3983,3966,0,0,4,,,,,,,0,0,0,-44.00,-26.00,-113.00,0.00,0.00,-111.00,6,53.00,1.00,4.62,0.00,0.00,-1.00,0,,,100,100,19,2,0,0,0,2,3,,,,,0.0,0.0,-1
51.999727,-0.454935,5.30,0.00,0.10,0.46,5.30,5.30,1.53,0.78,3907,2021-08-11 17:18:13.250,2021-08-11 18:18:13.249,16,0,0,15.652,51.999723,-0.454935,0.00,0.00,-0.10,4.20,-2.10,-11.40,0,1,0,93,100,-11408,4001,15652,2991.00,3,P-GPS,1,0,0,0,0,0,0,1628702293249,3912,3904,3983,3966,0,0,4,,,,,,,0,0,0,-42.00,-21.00,-114.00,0.00,0.00,-111.00,6,53.00,1.00,4.56,0.00,0.00,-1.00,0,,,100,100,19,2,0,0,0,2,3,,,,,0.0,0.0,-1
51.999727,-0.454935,5.20,0.00,0.00,0.46,5.30,5.30,1.53,0.78,4003,2021-08-11 17:18:13.346,2021-08-11 18:18:13.345,16,0,0,15.652,51.999723,-0.454935,0.00,0.00,0.00,2.90,-1.60,-11.40,0,1,0,93,100,-11408,4001,15652,2991.00,3,P-GPS,1,0,0,0,0,0,0,1628702293345,3912,3904,3983,3966,0,0,4,,,,,,,0,0,0,-29.00,-16.00,-114.00,0.00,0.00,-111.00,6,52.00,0.00,4.57,0.00,0.00,0.00,0,,,100,100,19,2,0,0,0,2,3,,,,,0.0,0.0,-1
51.999727,-0.454935,5.20,0.00,0.00,0.46,5.30,5.30,1.53,0.78,4104,2021-08-11 17:18:13.446,2021-08-11 18:18:13.446,16,0,0,15.652,51.999723,-0.454935,0.00,0.00,0.00,2.30,-2.10,-11.30,0,1,0,93,100,-11408,4001,15652,2991.00,3,P-GPS,1,0,0,0,0,0,0,1628702293446,3912,3904,3983,3966,0,0,4,,,,,,,0,0,0,-23.00,-21.00,-113.00,0.00,0.00,-111.00,6,52.00,0.00,4.60,0.00,0.00,0.00,0,,,100,100,19,2,0,0,0,2,3,,,,,0.0,0.0,-1
51.999727,-0.454935,5.20,0.00,0.14,0.47,5.30,5.30,1.53,0.78,4200,2021-08-11 17:18:13.542,2021-08-11 18:18:13.542,16,0,0,15.652,51.999723,-0.454935,0.00,0.10,-0.10,4.20,-2.90,-11.20,0,1,0,93,100,-11408,4001,15652,2991.00,3,P-GPS,1,0,0,0,0,0,0,1628702293542,3912,3904,3983,3966,0,0,4,,,,,,,0,0,0,-42.00,-29.00,-112.00,0.00,0.00,-111.00,6,52.00,1.41,4.69,0.00,1.00,-1.00,0,,,100,100,19,2,0,0,0,2,3,,,,,0.0,0.0,-1
51.999727,-0.454935,5.20,0.00,0.14,0.48,5.30,5.30,1.53,0.78,4312,2021-08-11 17:18:13.655,2021-08-11 18:18:13.655,16,0,0,15.697,51.999723,-0.454935,0.00,0.20,0.00,5.60,-3.70,-11.30,0,1,0,93,100,-11476,4001,15697,2991.00,3,P-GPS,1,0,0,0,0,0,0,1628702293654,3912,3904,3983,3966,0,0,4,,,,,,,0,0,0,-56.00,-37.00,-113.00,0.00,0.00,-111.00,6,52.00,1.41,4.76,0.00,2.00,0.00,0,,,100,100,19,2,0,0,0,2,3,,,,,0.0,0.0,-1
51.999727,-0.454935,5.20,0.00,0.20,0.48,5.30,5.30,1.53,0.78,4418,2021-08-11 17:18:13.761,2021-08-11 18:18:13.760,16,0,0,15.697,51.999723,-0.454935,0.00,0.20,0.00,6.40,-4.40,-11.40,0,1,0,93,100,-11476,4001,15697,2991.00,3,P-GPS,1,0,0,0,0,0,0,1628702293760,3912,3904,3983,3966,0,0,4,,,,,,,0,0,0,-64.00,-44.00,-114.00,0.00,0.00,-111.00,6,52.00,2.00,4.83,0.00,2.00,0.00,0,,,100,100,19,2,0,0,0,2,3,,,,,0.0,0.0,-1
51.999727,-0.454935,5.20,0.00,0.20,0.47,5.30,5.30,1.53,0.78,4505,2021-08-11 17:18:13.848,2021-08-11 18:18:13.847,16,0,0,15.697,51.999723,-0.454935,0.00,0.20,0.00,6.60,-5.20,-11.50,0,1,0,93,100,-11476,4001,15697,2991.00,3,P-GPS,1,0,0,0,0,0,0,1628702293847,3912,3904,3983,3966,0,0,4,,,,,,,0,0,0,-66.00,-52.00,-115.00,0.00,0.00,-111.00,6,52.00,2.00,4.68,0.00,2.00,0.00,0,,,100,100,19,2,0,0,0,2,3,,,,,0.0,0.0,-1
51.999727,-0.454934,5.20,0.00,0.20,0.47,5.30,5.30,1.53,0.78,4602,2021-08-11 17:18:13.944,2021-08-11 18:18:13.944,16,0,0,15.697,51.999723,-0.454935,0.00,0.20,0.00,6.60,-5.50,-11.40,0,1,0,93,100,-11476,4001,15697,2991.00,3,P-GPS,1,0,0,0,0,0,0,1628702293944,3912,3904,3983,3966,0,0,4,,,,,,,0,0,0,-66.00,-55.00,-114.00,0.00,0.00,-112.00,6,52.00,2.00,4.73,0.00,2.00,0.00,0,,,100,100,19,2,0,0,0,2,3,,,,,0.0,0.0,-1
51.999727,-0.454934,5.20,0.00,0.20,0.49,5.30,5.30,1.53,0.78,4707,2021-08-11 17:18:14.049,2021-08-11 18:18:14.049,16,0,0,15.697,51.999723,-0.454935,0.00,0.20,0.00,6.20,-6.00,-11.30,0,1,0,93,100,-11476,4001,15697,2991.00,3,P-GPS,1,0,0,0,0,0,0,1628702294049,3912,3904,3983,3966,0,0,4,,,,,,,0,0,0,-62.00,-60.00,-113.00,0.00,0.00,-111.00,6,52.00,2.00,4.94,0.00,2.00,0.00,0,,,100,100,19,2,0,0,0,2,3,,,,,0.0,0.0,-1
51.999727,-0.454934,5.20,0.00,0.20,0.49,5.30,5.30,1.53,0.78,4806,2021-08-11 17:18:14.149,2021-08-11 18:18:14.149,16,0,0,15.697,51.999723,-0.454935,0.00,0.20,0.00,5.80,-6.50,-11.10,0,1,0,93,100,-11476,4001,15697,2991.00,3,P-GPS,1,0,0,0,0,0,0,1628702294148,3912,3904,3983,3966,0,0,4,,,,,,,0,0,0,-58.00,-65.00,-111.00,0.00,0.00,-111.00,6,52.00,2.00,4.88,0.00,2.00,0.00,0,,,100,100,19,2,0,0,0,2,3,,,,,0.0,0.0,-1
51.999727,-0.454933,5.20,0.00,0.20,0.49,5.30,5.30,1.53,0.78,4902,2021-08-11 17:18:14.245,2021-08-11 18:18:14.244,16,0,0,15.697,51.999723,-0.454935,0.00,0.20,0.00,5.20,-6.60,-11.00,0,1,0,93,100,-11476,4001,15697,2991.00,3,P-GPS,1,0,0,0,0,0,0,1628702294244,3912,3904,3983,3966,0,0,4,,,,,,,0,0,0,-52.00,-66.00,-110.00,0.00,0.00,-111.00,6,52.00,2.00,4.87,0.00,2.00,0.00,0,,,100,100,19,2,0,0,0,2,3,,,,,0.0,0.0,-1
51.999727,-0.454933,5.20,0.00,0.20,0.50,5.30,5.30,1.53,0.78,5001,2021-08-11 17:18:14.344,2021-08-11 18:18:14.343,16,0,0,15.697,51.999723,-0.454935,0.00,0.20,0.00,5.00,-6.70,-10.80,0,1,0,93,100,-11476,4001,15697,2991.00,3,P-GPS,1,0,0,0,0,0,0,1628702294343,3912,3904,3983,3966,0,0,4,,,,,,,0,0,0,-50.00,-67.00,-108.00,0.00,0.00,-111.00,6,52.00,2.00,4.96,0.00,2.00,0.00,0,,,100,100,19,2,0,0,0,2,3,,,,,0.0,0.0,-1
51.999727,-0.454932,5.20,0.00,0.20,0.50,5.30,5.30,1.53,0.78,5106,2021-08-11 17:18:14.448,2021-08-11 18:18:14.448,16,0,0,15.697,51.999723,-0.454935,0.00,0.20,0.00,4.60,-7.30,-10.80,0,1,0,93,100,-11476,4001,15697,2991.00,3,P-GPS,1,0,0,0,0,0,0,1628702294448,3912,3904,3983,3966,0,0,4,,,,,,,0,0,0,-46.00,-73.00,-108.00,0.00,0.00,-111.00,6,52.00,2.00,4.99,0.00,2.00,0.00,0,,,100,100,19,2,0,0,0,2,3,,,,,0.0,0.0,-1
51.999727,-0.454932,5.20,0.00,0.10,0.51,5.30,5.30,1.53,0.78,5207,2021-08-11 17:18:14.550,2021-08-11 18:18:14.549,16,0,0,15.697,51.999723,-0.454935,0.00,0.10,0.00,4.80,-7.10,-10.90,0,1,0,93,100,-11476,4001,15697,2991.00,3,P-GPS,1,0,0,0,0,0,0,1628702294549,3912,3904,3983,3966,0,0,4,,,,,,,0,0,0,-48.00,-71.00,-109.00,0.00,0.00,-111.00,6,52.00,1.00,5.09,0.00,1.00,0.00,0,,,100,100,19,2,0,0,0,2,3,,,,,0.0,0.0,-1
51.999727,-0.454932,5.20,0.00,0.10,0.52,5.30,5.30,1.53,0.78,5405,2021-08-11 17:18:14.748,2021-08-11 18:18:14.747,16,0,0,15.820,51.999723,-0.454935,0.00,0.10,0.00,4.80,-6.80,-10.90,0,1,0,93,100,-9557,4001,15820,2991.00,3,P-GPS,1,0,0,0,0,0,0,1628702294747,3912,3904,3983,3966,0,0,4,,,,,,,0,0,0,-48.00,-68.00,-109.00,0.00,0.00,-110.00,6,52.00,1.00,5.15,0.00,1.00,0.00,0,,,100,100,19,2,0,0,0,2,3,,,,,0.0,0.0,-1
51.999727,-0.454932,5.20,0.00,0.10,0.52,5.30,5.30,1.53,0.78,5513,2021-08-11 17:18:14.855,2021-08-11 18:18:14.855,16,0,0,15.820,51.999723,-0.454935,0.00,0.10,0.00,4.80,-7.10,-10.90,0,1,0,93,100,-9557,4001,15820,2991.00,3,P-GPS,1,0,0,0,0,0,0,1628702294855,3912,3904,3983,3966,0,0,4,,,,,,,0,0,0,-48.00,-71.00,-109.00,0.00,0.00,-110.00,6,52.00,1.00,5.17,0.00,1.00,0.00,0,,,100,100,19,2,0,0,0,2,3,,,,,0.0,0.0,-1
51.999727,-0.454931,5.10,0.00,0.00,0.53,5.30,5.30,1.53,0.78,5609,2021-08-11 17:18:14.951,2021-08-11 18:18:14.951,16,0,0,15.820,51.999723,-0.454935,0.00,0.00,0.00,5.20,-7.10,-11.00,0,1,0,93,100,-9557,4001,15820,2991.00,3,P-GPS,1,0,0,0,0,0,0,1628702294951,3912,3904,3983,3966,0,0,4,,,,,,,0,0,0,-52.00,-71.00,-110.00,0.00,0.00,-110.00,6,51.00,0.00,5.26,0.00,0.00,0.00,0,,,100,100,19,2,0,0,0,2,3,,,,,0.0,0.0,-1
51.999727,-0.454931,5.10,0.00,0.00,0.52,5.30,5.30,1.53,0.78,5706,2021-08-11 17:18:15.049,2021-08-11 18:18:15.048,16,0,0,15.820,51.999723,-0.454935,0.00,0.00,0.00,5.50,-7.00,-11.30,0,1,0,93,100,-9557,4001,15820,2991.00,3,P-GPS,1,0,0,0,0,0,0,1628702295048,3912,3904,3983,3966,0,0,4,,,,,,,0,0,0,-55.00,-70.00,-113.00,0.00,0.00,-110.00,6,51.00,0.00,5.16,0.00,0.00,0.00,0,,,100,100,19,2,0,0,0,2,3,,,,,0.0,0.0,-1
51.999727,-0.454931,5.10,0.00,0.00,0.52,5.30,5.30,1.53,0.78,5804,2021-08-11 17:18:15.146,2021-08-11 18:18:15.146,16,0,0,15.820,51.999723,-0.454935,0.00,0.00,0.00,5.60,-6.60,-11.50,0,1,0,93,100,-9557,4001,15820,2991.00,3,P-GPS,1,0,0,0,0,0,0,1628702295146,3912,3904,3983,3966,0,0,4,,,,,,,0,0,0,-56.00,-66.00,-115.00,0.00,0.00,-110.00,6,51.00,0.00,5.22,0.00,0.00,0.00,0,,,100,100,19,2,0,0,0,2,3,,,,,0.0,0.0,-1
51.999727,-0.454931,5.10,0.00,0.00,0.52,5.30,5.30,1.53,0.78,5915,2021-08-11 17:18:15.258,2021-08-11 18:18:15.257,16,0,0,15.820,51.999723,-0.454935,0.00,0.00,0.00,5.50,-6.50,-11.50,0,1,0,93,100,-9557,4001,15820,2991.00,3,P-GPS,1,0,0,0,0,0,0,1628702295257,3912,3904,3983,3966,0,0,4,,,,,,,0,0,0,-55.00,-65.00,-115.00,0.00,0.00,-110.00,6,51.00,0.00,5.20,0.00,0.00,0.00,0,,,100,100,19,2,0,0,0,2,3,,,,,0.0,0.0,-1
51.999727,-0.454931,5.10,0.00,0.00,0.50,5.30,5.30,1.53,0.78,6009,2021-08-11 17:18:15.351,2021-08-11 18:18:15.351,16,0,0,15.820,51.999723,-0.454935,0.00,0.00,0.00,5.60,-5.80,-11.70,0,1,0,93,100,-9557,4001,15820,2991.00,3,P-GPS,1,0,0,0,0,0,0,1628702295351,3912,3904,3983,3966,0,0,4,,,,,,,0,0,0,-56.00,-58.00,-117.00,0.00,0.00,-110.00,6,51.00,0.00,5.00,0.00,0.00,0.00,0,,,100,100,19,2,0,0,0,2,3,,,,,0.0,0.0,-1
51.999727,-0.454931,5.10,0.00,0.00,0.50,5.30,5.30,1.53,0.78,6206,2021-08-11 17:18:15.549,2021-08-11 18:18:15.548,16,0,0,15.820,51.999723,-0.454935,0.00,0.00,0.00,5.30,-5.80,-11.60,0,1,0,93,100,-9557,4001,15820,2991.00,3,P-GPS,1,0,0,0,0,0,0,1628702295548,3912,3904,3983,3966,0,0,4,,,,,,,0,0,0,-53.00,-58.00,-116.00,0.00,0.00,-110.00,6,51.00,0.00,4.98,0.00,0.00,0.00,0,,,100,100,19,2,0,0,0,2,3,,,,,0.0,0.0,-1
51.999727,-0.454931,5.10,0.00,0.00,0.48,5.30,5.30,1.53,0.78,6315,2021-08-11 17:18:15.658,2021-08-11 18:18:15.657,16,0,0,15.820,51.999723,-0.454935,0.00,0.00,0.00,4.90,-5.60,-11.50,0,1,0,93,100,-9557,4001,15820,2991.00,3,P-GPS,1,0,0,0,0,0,0,1628702295657,3912,3904,3983,3966,0,0,4,,,,,,,0,0,0,-49.00,-56.00,-115.00,0.00,0.00,-110.00,6,51.00,0.00,4.76,0.00,0.00,0.00,0,,,100,100,19,2,0,0,0,2,3,,,,,0.0,0.0,-1
51.999727,-0.454931,5.10,0.00,0.10,0.48,5.30,5.30,1.53,0.78,6408,2021-08-11 17:18:15.751,2021-08-11 18:18:15.750,16,0,0,15.720,51.999723,-0.454935,0.00,0.00,-0.10,4.70,-5.90,-11.30,0,1,0,93,100,-10757,4001,15720,2991.00,3,P-GPS,1,0,0,0,0,0,0,1628702295750,3912,3904,3983,3966,0,0,4,,,,,,,0,0,0,-47.00,-59.00,-113.00,0.00,0.00,-110.00,6,51.00,1.00,4.76,0.00,0.00,-1.00,0,,,100,100,19,2,0,0,0,2,3,,,,,0.0,0.0,-1
51.999726,-0.454932,5.10,0.00,0.00,0.46,5.30,5.30,1.53,0.78,6508,2021-08-11 17:18:15.850,2021-08-11 18:18:15.850,16,0,0,15.720,51.999723,-0.454935,0.00,0.00,0.00,4.60,-5.90,-11.30,0,1,0,93,100,-10757,4001,15720,2991.00,3,P-GPS,1,0,0,0,0,0,0,1628702295850,3912,3904,3983,3966,0,0,4,,,,,,,0,0,0,-46.00,-59.00,-113.00,0.00,0.00,-110.00,6,51.00,0.00,4.56,0.00,0.00,0.00,0,,,100,100,19,2,0,0,0,2,3,,,,,0.0,0.0,-1
51.999727,-0.454932,5.10,0.00,0.00,0.46,5.30,5.30,1.53,0.78,6609,2021-08-11 17:18:15.951,2021-08-11 18:18:15.951,16,0,0,15.720,51.999723,-0.454935,0.00,0.00,0.00,4.80,-5.70,-11.20,0,1,0,93,100,-10757,4001,15720,2991.00,3,P-GPS,1,0,0,0,0,0,0,1628702295951,3912,3904,3983,3966,0,0,4,,,,,,,0,0,0,-48.00,-57.00,-112.00,0.00,0.00,-110.00,6,51.00,0.00,4.60,0.00,0.00,0.00,0,,,100,100,19,2,0,0,0,2,3,,,,,0.0,0.0,-1
51.999726,-0.454932,5.10,0.00,0.00,0.43,5.30,5.30,1.53,0.78,6809,2021-08-11 17:18:16.152,2021-08-11 18:18:16.151,16,0,0,15.720,51.999723,-0.454935,0.00,0.00,0.00,4.60,-5.70,-11.30,0,1,0,93,100,-10757,4001,15720,2991.00,3,P-GPS,1,0,0,0,0,0,0,1628702296151,3912,3904,3983,3966,0,0,4,,,,,,,0,0,0,-46.00,-57.00,-113.00,0.00,0.00,-110.00,6,51.00,0.00,4.33,0.00,0.00,0.00,0,,,100,100,19,2,0,0,0,2,3,,,,,0.0,0.0,-1
51.999726,-0.454932,5.10,0.00,0.00,0.43,5.30,5.30,1.53,0.78,6918,2021-08-11 17:18:16.261,2021-08-11 18:18:16.260,16,0,0,15.720,51.999723,-0.454935,0.00,0.00,0.00,5.00,-5.50,-11.40,0,1,0,93,100,-10757,4001,15720,2991.00,3,P-GPS,1,0,0,0,0,0,0,1628702296260,3912,3904,3983,3966,0,0,4,,,,,,,0,0,0,-50.00,-55.00,-114.00,0.00,0.00,-110.00,6,51.00,0.00,4.31,0.00,0.00,0.00,0,,,100,100,19,2,0,0,0,2,3,,,,,0.0,0.0,-1
51.999726,-0.454932,5.10,0.00,0.00,0.42,5.30,5.30,1.53,0.78,7008,2021-08-11 17:18:16.351,2021-08-11 18:18:16.350,16,0,0,15.720,51.999723,-0.454935,0.00,0.00,0.00,5.20,-5.30,-11.50,0,1,0,93,100,-10757,4001,15720,2991.00,3,P-GPS,1,0,0,0,0,0,0,1628702296350,3912,3904,3983,3966,0,0,4,,,,,,,0,0,0,-52.00,-53.00,-115.00,0.00,0.00,-110.00,6,51.00,0.00,4.24,0.00,0.00,0.00,0,,,100,100,19,2,0,0,0,2,3,,,,,0.0,0.0,-1
51.999726,-0.454933,5.10,0.00,0.10,0.41,5.30,5.30,1.53,0.78,7107,2021-08-11 17:18:16.450,2021-08-11 18:18:16.450,16,0,0,15.720,51.999723,-0.454935,0.00,-0.10,0.00,5.30,-5.40,-11.60,0,1,0,93,100,-10757,4001,15720,2991.00,3,P-GPS,1,0,0,0,0,0,0,1628702296449,3912,3904,3983,3966,0,0,4,,,,,,,0,0,0,-53.00,-54.00,-116.00,0.00,0.00,-110.00,6,51.00,1.00,4.08,0.00,-1.00,0.00,0,,,100,100,19,2,0,0,0,2,3,,,,,0.0,0.0,-1
51.999726,-0.454933,5.10,0.00,0.10,0.41,5.30,5.30,1.53,0.78,7208,2021-08-11 17:18:16.550,2021-08-11 18:18:16.550,16,0,0,15.720,51.999723,-0.454935,0.00,-0.10,0.00,5.40,-5.20,-11.70,0,1,0,93,100,-10757,4001,15720,2991.00,3,P-GPS,1,0,0,0,0,0,0,1628702296550,3912,3904,3983,3966,0,0,4,,,,,,,0,0,0,-54.00,-52.00,-117.00,0.00,0.00,-110.00,6,51.00,1.00,4.10,0.00,-1.00,0.00,0,,,100,100,19,2,0,0,0,2,3,,,,,0.0,0.0,-1
51.999726,-0.454933,5.10,0.00,0.10,0.39,5.30,5.30,1.53,0.78,7314,2021-08-11 17:18:16.656,2021-08-11 18:18:16.656,16,0,0,15.720,51.999723,-0.454935,0.00,-0.10,0.00,5.90,-4.60,-11.80,0,1,0,93,100,-10757,4001,15720,2991.00,3,P-GPS,1,0,0,0,0,0,0,1628702296656,3912,3904,3983,3966,0,0,4,,,,,,,0,0,0,-59.00,-46.00,-118.00,0.00,0.00,-110.00,6,51.00,1.00,3.94,0.00,-1.00,0.00,0,,,100,100,19,2,0,0,0,2,3,,,,,0.0,0.0,-1
51.999726,-0.454933,5.10,0.00,0.10,0.39,5.30,5.30,1.53,0.78,7406,2021-08-11 17:18:16.748,2021-08-11 18:18:16.748,16,0,0,15.720,51.999723,-0.454935,0.00,-0.10,0.00,6.00,-4.00,-11.70,0,1,0,93,100,-10757,4001,15720,2991.00,3,P-GPS,1,0,0,0,0,0,0,1628702296748,3912,3904,3983,3966,0,0,4,,,,,,,0,0,0,-60.00,-40.00,-117.00,0.00,0.00,-110.00,6,51.00,1.00,3.89,0.00,-1.00,0.00,0,,,100,100,19,2,0,0,0,2,3,,,,,0.0,0.0,-1
51.999726,-0.454934,5.10,0.00,0.10,0.36,5.30,5.30,1.53,0.78,7605,2021-08-11 17:18:16.948,2021-08-11 18:18:16.947,16,0,0,15.735,51.999723,-0.454935,0.00,-0.10,0.00,5.80,-3.40,-11.30,0,1,0,93,100,-10411,4001,15735,2991.00,3,P-GPS,1,0,0,0,0,0,0,1628702296947,3912,3904,3983,3966,0,0,4,,,,,,,0,0,0,-58.00,-34.00,-113.00,0.00,0.00,-110.00,6,51.00,1.00,3.61,0.00,-1.00,0.00,0,,,100,100,19,2,0,0,0,2,3,,,,,0.0,0.0,-1
51.999726,-0.454934,5.10,0.00,0.10,0.34,5.30,5.30,1.53,0.78,7712,2021-08-11 17:18:17.055,2021-08-11 18:18:17.055,16,0,0,15.735,51.999723,-0.454935,0.00,-0.10,0.00,5.70,-3.10,-11.20,0,1,0,93,100,-10411,4001,15735,2991.00,3,P-GPS,1,0,0,0,0,0,0,1628702297054,3912,3904,3983,3966,0,0,4,,,,,,,0,0,0,-57.00,-31.00,-112.00,0.00,0.00,-110.00,6,51.00,1.00,3.43,0.00,-1.00,0.00,0,,,100,100,19,2,0,0,0,2,3,,,,,0.0,0.0,-1
51.999726,-0.454934,5.10,0.00,0.00,0.34,5.30,5.30,1.53,0.78,7811,2021-08-11 17:18:17.153,2021-08-11 18:18:17.153,16,0,0,15.735,51.999723,-0.454935,0.00,0.00,0.00,5.50,-3.20,-11.20,0,1,0,93,100,-10411,4001,15735,2991.00,3,P-GPS,1,0,0,0,0,0,0,1628702297153,3912,3904,3983,3966,0,0,4,,,,,,,0,0,0,-55.00,-32.00,-112.00,0.00,0.00,-110.00,6,51.00,0.00,3.40,0.00,0.00,0.00,0,,,100,100,19,2,0,0,0,2,3,,,,,0.0,0.0,-1
51.999726,-0.454935,5.10,0.00,0.00,0.32,5.30,5.30,1.53,0.78,8007,2021-08-11 17:18:17.350,2021-08-11 18:18:17.349,16,0,0,15.735,51.999723,-0.454935,0.00,0.00,0.00,5.20,-3.50,-11.40,0,1,0,93,100,-10411,4001,15735,2991.00,3,P-GPS,1,0,0,0,0,0,0,1628702297349,3912,3904,3983,3966,0,0,4,,,,,,,0,0,0,-52.00,-35.00,-114.00,0.00,0.00,-110.00,6,51.00,0.00,3.22,0.00,0.00,0.00,0,,,100,100,19,2,0,0,0,2,3,,,,,0.0,0.0,-1
51.999726,-0.454935,5.10,0.00,0.00,0.32,5.30,5.30,1.53,0.78,8117,2021-08-11 17:18:17.460,2021-08-11 18:18:17.459,16,0,0,15.735,51.999723,-0.454935,0.00,0.00,0.00,5.30,-3.60,-11.50,0,1,0,93,100,-10411,4001,15735,2991.00,3,P-GPS,1,0,0,0,0,0,0,1628702297459,3912,3904,3983,3966,0,0,4,,,,,,,0,0,0,-53.00,-36.00,-115.00,0.00,0.00,-110.00,6,51.00,0.00,3.18,0.00,0.00,0.00,0,,,100,100,19,2,0,0,0,2,3,,,,,0.0,0.0,-1
51.999726,-0.454935,5.10,0.00,0.00,0.31,5.30,5.30,1.53,0.78,8208,2021-08-11 17:18:17.550,2021-08-11 18:18:17.550,16,0,0,15.735,51.999723,-0.454935,0.00,0.00,0.00,5.40,-3.60,-11.60,0,1,0,93,100,-10411,4001,15735,2991.00,3,P-GPS,1,0,0,0,0,0,0,1628702297550,3912,3904,3983,3966,0,0,4,,,,,,,0,0,0,-54.00,-36.00,-116.00,0.00,0.00,-110.00,6,51.00,0.00,3.11,0.00,0.00,0.00,0,,,100,100,19,2,0,0,0,2,3,,,,,0.0,0.0,-1
51.999726,-0.454935,5.10,0.00,0.00,0.31,5.30,5.30,1.53,0.78,8325,2021-08-11 17:18:17.667,2021-08-11 18:18:17.667,16,0,0,15.735,51.999723,-0.454935,0.00,0.00,0.00,5.60,-3.80,-11.70,0,1,0,93,100,-10411,4001,15735,2991.00,3,P-GPS,1,0,0,0,0,0,0,1628702297667,3912,3904,3983,3966,0,0,4,,,,,,,0,0,0,-56.00,-38.00,-117.00,0.00,0.00,-110.00,6,51.00,0.00,3.08,0.00,0.00,0.00,0,,,100,100,19,2,0,0,0,2,3,,,,,0.0,0.0,-1
51.999726,-0.454935,5.10,0.00,0.00,0.31,5.30,5.30,1.53,0.78,8417,2021-08-11 17:18:17.759,2021-08-11 18:18:17.759,16,0,0,15.695,51.999723,-0.454935,0.00,0.00,0.00,5.70,-3.80,-11.60,0,1,0,93,100,-10453,4001,15695,2991.00,3,P-GPS,1,0,0,0,0,0,0,1628702297759,3912,3904,3983,3966,0,0,4,,,,,,,0,0,0,-57.00,-38.00,-116.00,0.00,0.00,-110.00,6,51.00,0.00,3.12,0.00,0.00,0.00,0,,,100,100,19,2,0,0,0,2,3,,,,,0.0,0.0,-1
51.999726,-0.454935,5.10,0.00,0.00,0.31,5.30,5.30,1.53,0.78,8506,2021-08-11 17:18:17.848,2021-08-11 18:18:17.848,16,0,0,15.695,51.999723,-0.454935,0.00,0.00,0.00,5.80,-4.10,-11.60,0,1,0,93,100,-10453,4001,15695,2991.00,3,P-GPS,1,0,0,0,0,0,0,1628702297848,3912,3904,3983,3966,0,0,4,,,,,,,0,0,0,-58.00,-41.00,-116.00,0.00,0.00,-110.00,6,51.00,0.00,3.11,0.00,0.00,0.00,0,,,100,100,19,2,0,0,0,2,3,,,,,0.0,0.0,-1
51.999726,-0.454935,5.10,0.00,0.00,0.31,5.30,5.30,1.53,0.78,8611,2021-08-11 17:18:17.954,2021-08-11 18:18:17.953,15,0,0,15.695,51.999723,-0.454935,0.00,0.00,0.00,5.80,-4.00,-11.70,0,1,0,93,100,-10453,4001,15695,2991.00,3,P-GPS,1,0,0,0,0,0,0,1628702297953,3912,3904,3983,3966,0,0,4,,,,,,,0,0,0,-58.00,-40.00,-117.00,0.00,0.00,-110.00,6,51.00,0.00,3.14,0.00,0.00,0.00,0,,,100,100,19,2,0,0,0,2,3,,,,,0.0,0.0,-1
51.999726,-0.454935,5.10,0.00,0.00,0.31,5.30,5.30,1.53,0.78,8712,2021-08-11 17:18:18.055,2021-08-11 18:18:18.054,15,0,0,15.695,51.999723,-0.454935,0.00,0.00,0.00,6.00,-4.40,-11.70,0,1,0,93,100,-10453,4001,15695,2991.00,3,P-GPS,1,0,0,0,0,0,0,1628702298054,3912,3904,3983,3966,0,0,4,,,,,,,0,0,0,-60.00,-44.00,-117.00,0.00,0.00,-110.00,6,51.00,0.00,3.05,0.00,0.00,0.00,0,,,100,100,19,2,0,0,0,2,3,,,,,0.0,0.0,-1
51.999726,-0.454935,5.10,0.00,0.00,0.30,5.30,5.30,1.53,0.78,8807,2021-08-11 17:18:18.150,2021-08-11 18:18:18.149,15,0,0,15.695,51.999723,-0.454935,0.00,0.00,0.00,6.00,-4.60,-11.60,0,1,0,93,100,-10453,4001,15695,2991.00,3,P-GPS,1,0,0,0,0,0,0,1628702298149,3912,3904,3983,3966,0,0,4,,,,,,,0,0,0,-60.00,-46.00,-116.00,0.00,0.00,-110.00,6,51.00,0.00,2.98,0.00,0.00,0.00,0,,,100,100,19,2,0,0,0,2,3,,,,,0.0,0.0,-1
51.999726,-0.454935,5.10,0.00,0.00,0.30,5.30,5.30,1.53,0.78,9004,2021-08-11 17:18:18.347,2021-08-11 18:18:18.346,15,0,0,15.695,51.999723,-0.454935,0.00,0.00,0.00,5.80,-5.00,-11.70,0,1,0,93,100,-10453,4001,15695,2991.00,3,P-GPS,1,0,0,0,0,0,0,1628702298346,3912,3904,3983,3966,0,0,4,,,,,,,0,0,0,-58.00,-50.00,-117.00,0.00,0.00,-110.00,6,51.00,0.00,2.99,0.00,0.00,0.00,0,,,100,100,19,2,0,0,0,2,3,,,,,0.0,0.0,-1
51.999726,-0.454935,5.10,0.00,0.00,0.30,5.30,5.30,1.53,0.78,9107,2021-08-11 17:18:18.449,2021-08-11 18:18:18.449,15,0,0,15.695,51.999723,-0.454935,0.00,0.00,0.00,5.70,-5.20,-11.70,0,1,0,93,100,-10453,4001,15695,2991.00,3,P-GPS,1,0,0,0,0,0,0,1628702298449,3912,3904,3983,3966,0,0,4,,,,,,,0,0,0,-57.00,-52.00,-117.00,0.00,0.00,-110.00,6,51.00,0.00,2.96,0.00,0.00,0.00,0,,,100,100,19,2,0,0,0,2,3,,,,,0.0,0.0,-1
51.999726,-0.454935,5.10,0.00,0.00,0.30,5.30,5.30,1.53,0.78,9207,2021-08-11 17:18:18.550,2021-08-11 18:18:18.549,15,0,0,15.695,51.999723,-0.454935,0.00,0.00,0.00,5.60,-4.80,-11.80,0,1,0,93,100,-10453,4001,15695,2991.00,3,P-GPS,1,0,0,0,0,0,0,1628702298549,3912,3904,3983,3966,0,0,4,,,,,,,0,0,0,-56.00,-48.00,-118.00,0.00,0.00,-110.00,6,51.00,0.00,2.95,0.00,0.00,0.00,0,,,100,100,19,2,0,0,0,2,3,,,,,0.0,0.0,-1
51.999726,-0.454935,5.10,0.00,0.00,0.30,5.30,5.30,1.53,0.78,9406,2021-08-11 17:18:18.749,2021-08-11 18:18:18.748,15,0,0,15.695,51.999723,-0.454935,0.00,0.00,0.00,5.70,-4.80,-11.70,0,1,0,93,100,-10453,4001,15695,2991.00,3,P-GPS,1,0,0,252,0,0,0,1628702298748,3912,3904,3983,3966,0,0,4,,,,,,,0,0,0,-57.00,-48.00,-117.00,0.00,0.00,-110.00,6,51.00,0.00,3.01,0.00,0.00,0.00,0,,,100,100,19,2,0,0,0,2,3,,,,,0.0,0.0,-1
51.999726,-0.454935,5.20,0.00,0.00,0.30,5.30,5.30,1.53,0.78,9509,2021-08-11 17:18:18.851,2021-08-11 18:18:18.851,15,0,0,15.671,51.999723,-0.454935,0.00,0.00,0.00,5.80,-4.50,-11.60,0,1,0,93,100,-10506,4001,15671,2991.00,3,P-GPS,1,0,0,252,0,0,0,1628702298851,3912,3904,3983,3966,0,0,4,,,,,,,0,0,0,-58.00,-45.00,-116.00,0.00,0.00,-110.00,6,52.00,0.00,3.00,0.00,0.00,0.00,0,,,100,100,19,2,0,0,0,2,3,,,,,0.0,0.0,-1
51.999726,-0.454935,5.10,0.00,0.10,0.30,5.30,5.30,1.53,0.78,9608,2021-08-11 17:18:18.950,2021-08-11 18:18:18.950,15,0,0,15.671,51.999723,-0.454935,0.00,0.10,0.00,4.80,5.20,-11.20,0,1,0,93,100,-10506,4001,15671,2991.00,3,P-GPS,1,0,0,531,0,0,0,1628702298950,3912,3904,3983,3966,0,0,4,,,,,,,0,0,0,-48.00,52.00,-112.00,0.00,0.00,-110.00,6,51.00,1.00,3.02,0.00,1.00,0.00,0,,,100,100,19,2,0,0,0,2,3,,,,,0.0,0.0,-1
51.999726,-0.454934,5.10,0.00,0.40,0.30,5.30,5.30,1.53,0.78,9708,2021-08-11 17:18:19.050,2021-08-11 18:18:19.050,15,0,0,15.671,51.999723,-0.454935,0.10,0.80,0.00,3.80,16.80,-11.00,0,1,0,93,100,-10506,4001,15671,2991.00,3,P-GPS,1,0,0,552,0,0,0,1628702299050,3912,3904,3983,3966,0,0,4,,,,,,,0,0,0,-38.00,168.00,-110.00,0.00,0.00,-110.00,6,51.00,4.00,3.03,1.00,8.00,0.00,0,,,100,100,19,2,0,0,0,2,3,,,,,0.0,0.0,-1
51.999726,-0.454933,5.10,0.00,0.81,0.34,5.30,5.30,1.53,0.78,9821,2021-08-11 17:18:19.163,2021-08-11 18:18:19.163,15,0,0,15.671,51.999723,-0.454935,0.10,0.80,0.00,3.00,21.60,-11.20,0,1,0,93,100,-10506,4001,15671,2991.00,3,P-GPS,1,0,0,315,0,0,0,1628702299163,3912,3904,3983,3966,0,0,4,,,,,,,0,0,0,-30.00,216.00,-112.00,0.00,0.00,-110.00,6,51.00,8.06,3.36,1.00,8.00,0.00,0,,,100,100,19,2,0,0,0,2,3,,,,,0.0,0.0,-1
51.999726,-0.454932,5.10,0.00,1.02,0.40,5.30,5.30,1.53,0.78,9910,2021-08-11 17:18:19.252,2021-08-11 18:18:19.252,16,0,0,15.671,51.999723,-0.454935,0.20,1.00,0.00,2.80,16.40,-11.40,0,1,0,93,100,-10506,4001,15671,2991.00,3,P-GPS,1,0,0,6,0,0,0,1628702299252,3912,3904,3983,3966,0,0,4,,,,,,,0,0,0,-28.00,164.00,-114.00,0.00,0.00,-111.00,6,51.00,10.20,4.04,2.00,10.00,0.00,0,,,100,100,19,2,0,0,0,2,3,,,,,0.0,0.0,-1
51.999726,-0.454930,5.10,0.00,1.24,0.50,5.30,5.30,1.53,0.78,10009,2021-08-11 17:18:19.352,2021-08-11 18:18:19.351,16,0,0,15.671,51.999723,-0.454935,0.30,1.20,0.00,2.90,2.40,-11.60,0,1,0,93,100,-10506,4001,15671,2991.00,3,P-GPS,1,0,0,0,0,0,0,1628702299351,3912,3904,3983,3966,0,0,4,,,,,,,0,0,0,-29.00,24.00,-116.00,0.00,0.00,-111.00,6,51.00,12.37,5.03,3.00,12.00,0.00,0,,,100,100,19,2,0,0,0,2,3,,,,,0.0,0.0,-1
51.999727,-0.454928,5.10,0.00,1.24,0.63,5.30,5.30,1.53,0.78,10105,2021-08-11 17:18:19.448,2021-08-11 18:18:19.447,16,0,0,15.671,51.999723,-0.454935,0.30,1.20,0.00,3.10,-4.50,-11.80,0,1,0,93,100,-10506,4001,15671,2991.00,3,P-GPS,1,0,0,0,0,0,0,1628702299447,3912,3904,3983,3966,0,0,4,,,,,,,0,0,0,-31.00,-45.00,-118.00,0.00,0.00,-111.00,6,51.00,12.37,6.29,3.00,12.00,0.00,0,,,100,100,19,2,0,0,0,2,3,,,,,0.0,0.0,-1
51.999727,-0.454927,5.20,0.00,1.14,0.75,5.30,5.30,1.53,0.78,10205,2021-08-11 17:18:19.548,2021-08-11 18:18:19.547,16,0,0,15.671,51.999723,-0.454935,0.30,1.10,0.00,3.80,-6.90,-12.00,0,1,0,93,100,-10506,4001,15671,2991.00,3,P-GPS,1,0,0,0,0,0,0,1628702299547,3912,3904,3983,3966,0,0,4,,,,,,,0,0,0,-38.00,-69.00,-120.00,0.00,0.00,-111.00,6,52.00,11.40,7.48,3.00,11.00,0.00,0,,,100,100,19,2,0,0,0,2,3,,,,,0.0,0.0,-1
51.999727,-0.454927,5.20,0.00,1.14,0.75,5.30,5.30,1.53,0.78,10402,2021-08-11 17:18:19.745,2021-08-11 18:18:19.744,16,0,0,15.671,51.999723,-0.454935,0.30,1.10,0.00,3.80,-6.90,-12.00,0,1,0,93,100,-10506,4001,15671,2991.00,3,P-GPS,1,0,0,0,0,0,0,1628702299744,3912,3904,3983,3966,0,0,4,,,,,,,0,0,0,-38.00,-69.00,-120.00,0.00,0.00,-111.00,6,52.00,11.40,7.48,3.00,11.00,0.00,0,,,100,100,19,2,0,0,0,2,3,,,,,0.0,0.0,-1
51.999728,-0.454922,5.20,0.00,0.85,1.10,5.30,5.30,1.53,1.10,10508,2021-08-11 17:18:19.851,2021-08-11 18:18:19.851,14,0,0,15.671,51.999723,-0.454935,0.30,0.80,0.00,4.20,-11.00,-12.20,0,1,0,93,100,-10506,4001,15671,2991.00,3,P-GPS,1,0,0,0,0,0,0,1628702299850,3912,3904,3983,3966,0,0,4,,,,,,,0,0,0,-42.00,-110.00,-122.00,0.00,0.00,-111.00,6,52.00,8.54,11.02,3.00,8.00,0.00,0,,,100,100,19,2,0,0,0,2,3,,,,,0.0,0.0,-1
51.999729,-0.454921,5.20,0.00,0.63,1.18,5.30,5.30,1.53,1.18,10607,2021-08-11 17:18:19.949,2021-08-11 18:18:19.949,14,0,0,15.671,51.999723,-0.454935,0.20,0.60,0.00,4.50,-11.40,-12.20,0,1,0,93,100,-10506,4001,15671,2991.00,3,P-GPS,1,0,0,0,0,0,0,1628702299949,3912,3904,3983,3966,0,0,4,,,,,,,0,0,0,-45.00,-114.00,-122.00,0.00,0.00,-111.00,6,52.00,6.32,11.80,2.00,6.00,0.00,0,,,100,100,19,2,0,0,0,2,3,,,,,0.0,0.0,-1
51.999729,-0.454919,5.20,0.00,0.63,1.27,5.30,5.30,1.53,1.27,10715,2021-08-11 17:18:20.058,2021-08-11 18:18:20.057,14,0,0,15.671,51.999723,-0.454935,0.20,0.40,0.00,4.90,-11.20,-12.50,0,1,0,93,100,-10506,4001,15671,2991.00,3,P-GPS,1,0,0,0,0,0,0,1628702300057,3912,3904,3983,3966,0,0,4,,,,,,,0,0,0,-49.00,-112.00,-125.00,0.00,0.00,-111.00,6,52.00,6.32,12.74,2.00,4.00,0.00,0,,,100,100,19,2,0,0,0,2,3,,,,,0.0,0.0,-1
51.999729,-0.454919,5.20,0.00,0.45,1.33,5.30,5.30,1.53,1.33,10816,2021-08-11 17:18:20.159,2021-08-11 18:18:20.158,14,0,0,15.671,51.999723,-0.454935,0.20,0.40,0.00,5.30,-11.00,-12.70,0,1,0,93,100,-10506,4001,15671,2991.00,3,P-GPS,1,0,0,0,0,0,0,1628702300158,3912,3904,3983,3966,0,0,4,,,,,,,0,0,0,-53.00,-110.00,-127.00,0.00,0.00,-111.00,6,52.00,4.47,13.34,2.00,4.00,0.00,0,,,100,100,19,2,0,0,0,2,3,,,,,0.0,0.0,-1
51.999729,-0.454918,5.20,0.00,0.45,1.40,5.30,5.30,1.53,1.40,10909,2021-08-11 17:18:20.251,2021-08-11 18:18:20.251,15,0,0,15.671,51.999723,-0.454935,0.20,0.40,0.00,5.30,-10.40,-12.80,0,1,0,93,100,-10506,4001,15671,2991.00,3,P-GPS,1,0,0,0,0,0,0,1628702300251,3912,3904,3983,3966,0,0,4,,,,,,,0,0,0,-53.00,-104.00,-128.00,0.00,0.00,-111.00,6,52.00,4.47,13.98,2.00,4.00,0.00,0,,,100,100,19,2,0,0,0,2,3,,,,,0.0,0.0,-1
51.999730,-0.454917,5.20,0.00,0.32,1.49,5.30,5.30,1.53,1.49,11009,2021-08-11 17:18:20.351,2021-08-11 18:18:20.351,15,0,0,15.671,51.999723,-0.454935,0.10,0.30,0.00,5.60,-9.70,-12.80,0,1,0,93,100,-10506,4001,15671,2991.00,3,P-GPS,1,0,0,0,21,0,0,1628702300351,3912,3904,3983,3966,0,0,4,,,,,,,0,0,0,-56.00,-97.00,-128.00,0.00,0.00,-111.00,6,52.00,3.16,14.88,1.00,3.00,0.00,0,,,100,100,19,2,0,0,0,2,3,,,,,0.0,0.0,-1
51.999730,-0.454916,5.20,0.00,0.32,1.52,5.30,5.30,1.53,1.52,11109,2021-08-11 17:18:20.452,2021-08-11 18:18:20.451,15,0,0,15.671,51.999723,-0.454935,0.10,0.30,0.00,5.50,-8.80,-12.70,0,1,0,93,100,-10506,4001,15671,2991.00,3,P-GPS,1,0,0,0,73,0,0,1628702300451,3912,3904,3983,3966,0,0,4,,,,,,,0,0,0,-55.00,-88.00,-127.00,0.00,0.00,-111.00,6,52.00,3.16,15.23,1.00,3.00,0.00,0,,,100,100,19,2,0,0,0,2,3,,,,,0.0,0.0,-1
51.999730,-0.454916,5.30,0.00,0.22,1.55,5.30,5.30,1.53,1.55,11207,2021-08-11 17:18:20.549,2021-08-11 18:18:20.549,15,0,0,15.671,51.999723,-0.454935,0.10,0.20,0.00,5.40,-8.30,-12.50,0,1,0,93,100,-10506,4001,15671,2991.00,3,P-GPS,1,0,0,0,93,0,0,1628702300549,3912,3904,3983,3966,0,0,4,,,,,,,0,0,0,-54.00,-83.00,-125.00,0.00,0.00,-111.00,6,53.00,2.24,15.53,1.00,2.00,0.00,0,,,100,100,19,2,0,0,0,2,3,,,,,0.0,0.0,-1
51.999730,-0.454915,5.30,0.00,0.17,1.60,5.30,5.30,1.53,1.60,11305,2021-08-11 17:18:20.647,2021-08-11 18:18:20.647,15,0,0,15.671,51.999723,-0.454935,0.10,0.10,-0.10,5.00,-7.20,-12.40,0,1,0,93,100,-10506,4001,15671,2991.00,3,P-GPS,1,0,0,0,135,0,0,1628702300647,3912,3904,3983,3966,0,0,4,,,,,,,0,0,0,-50.00,-72.00,-124.00,0.00,0.00,-111.00,6,53.00,1.73,15.97,1.00,1.00,-1.00,0,,,100,100,19,2,0,0,0,2,3,,,,,0.0,0.0,-1
51.999730,-0.454915,5.30,0.00,0.17,1.61,5.30,5.30,1.53,1.61,11414,2021-08-11 17:18:20.756,2021-08-11 18:18:20.756,15,0,0,15.671,51.999723,-0.454935,0.10,0.10,-0.10,5.10,-6.50,-12.20,0,1,0,93,100,-10506,4001,15671,2991.00,3,P-GPS,1,0,0,0,209,0,0,1628702300756,3912,3904,3983,3966,0,0,4,,,,,,,0,0,0,-51.00,-65.00,-122.00,0.00,0.00,-111.00,6,53.00,1.73,16.14,1.00,1.00,-1.00,0,,,100,100,19,2,0,0,0,2,3,,,,,0.0,0.0,-1
51.999730,-0.454915,5.30,0.00,0.30,1.61,5.30,5.30,1.53,1.61,11507,2021-08-11 17:18:20.849,2021-08-11 18:18:20.849,15,0,0,15.671,51.999723,-0.454935,0.00,0.00,-0.30,4.70,-5.80,-12.00,0,1,0,93,100,-10506,4001,15671,2991.00,3,P-GPS,1,0,0,0,209,0,0,1628702300849,3912,3904,3983,3966,0,0,4,,,,,,,0,0,0,-47.00,-58.00,-120.00,0.00,0.00,-111.00,6,53.00,3.00,16.14,0.00,0.00,-3.00,0,,,100,100,19,2,0,0,0,2,3,,,,,0.0,0.0,-1
51.999730,-0.454914,5.40,0.00,0.60,1.65,5.40,5.40,1.53,1.65,11607,2021-08-11 17:18:20.950,2021-08-11 18:18:20.949,15,0,0,15.671,51.999723,-0.454935,0.00,0.00,-0.60,4.50,-5.20,-11.90,0,1,0,93,100,-10506,4001,15671,2991.00,3,P-GPS,1,0,0,0,280,0,0,1628702300949,3912,3904,3983,3966,0,0,4,,,,,,,0,0,0,-45.00,-52.00,-119.00,0.00,0.00,-111.00,6,54.00,6.00,16.46,0.00,0.00,-6.00,0,,,100,100,19,2,0,0,0,2,3,,,,,0.0,0.0,-1
51.999730,-0.454915,5.60,0.00,1.00,1.63,5.60,5.60,1.53,1.65,11809,2021-08-11 17:18:21.151,2021-08-11 18:18:21.151,16,0,0,15.671,51.999723,-0.454935,0.00,0.00,-1.00,4.20,-4.80,-11.90,0,1,0,93,100,-10506,4001,15671,2991.00,3,P-GPS,1,0,0,0,275,0,0,1628702301151,3912,3904,3983,3966,0,0,4,,,,,,,0,0,0,-42.00,-48.00,-119.00,0.00,0.00,-112.00,6,56.00,10.00,16.33,0.00,0.00,-10.00,0,,,100,100,19,2,0,0,0,2,3,,,,,0.0,0.0,-1
51.999730,-0.454915,5.70,0.00,1.00,1.61,5.70,5.70,1.53,1.65,11921,2021-08-11 17:18:21.264,2021-08-11 18:18:21.263,16,0,0,15.671,51.999723,-0.454935,0.00,0.00,-1.00,4.30,-4.80,-11.90,0,1,0,93,100,-10506,4001,15671,2991.00,3,P-GPS,1,0,0,0,259,0,0,1628702301263,3912,3904,3983,3966,0,0,4,,,,,,,0,0,0,-43.00,-48.00,-119.00,0.00,0.00,-111.00,6,57.00,10.00,16.13,0.00,0.00,-10.00,0,,,100,100,19,2,0,0,0,2,3,,,,,0.0,0.0,-1
51.999730,-0.454915,5.80,0.00,1.00,1.60,5.80,5.80,1.53,1.65,12020,2021-08-11 17:18:21.362,2021-08-11 18:18:21.362,16,0,0,15.671,51.999723,-0.454935,0.00,0.00,-1.00,4.40,-4.20,-11.80,0,1,0,93,100,-10506,4001,15671,2991.00,3,P-GPS,1,0,0,0,233,0,0,1628702301362,3912,3904,3983,3966,0,0,4,,,,,,,0,0,0,-44.00,-42.00,-118.00,0.00,0.00,-112.00,6,58.00,10.00,16.02,0.00,0.00,-10.00,0,,,100,100,19,2,0,0,0,2,3,,,,,0.0,0.0,-1
51.999730,-0.454915,6.00,0.00,0.91,1.58,6.00,6.00,1.53,1.65,12207,2021-08-11 17:18:21.549,2021-08-11 18:18:21.549,16,0,0,15.671,51.999723,-0.454935,0.00,-0.10,-0.90,4.50,-3.70,-11.60,0,1,0,93,100,-10506,4001,15671,2991.00,3,P-GPS,1,0,0,0,258,0,0,1628702301549,3912,3904,3983,3966,0,0,4,,,,,,,0,0,0,-45.00,-37.00,-116.00,0.00,0.00,-111.00,6,60.00,9.06,15.81,0.00,-1.00,-9.00,0,,,100,100,19,2,0,0,0,2,3,,,,,0.0,0.0,-1
51.999730,-0.454916,6.20,0.00,1.00,1.53,6.20,6.20,1.53,1.65,12407,2021-08-11 17:18:21.750,2021-08-11 18:18:21.749,15,0,0,15.671,51.999723,-0.454935,0.00,-0.10,-1.00,3.90,-3.60,-11.40,0,1,0,93,100,-10506,4001,15671,2991.00,3,P-GPS,1,0,0,0,226,0,0,1628702301749,3912,3904,3983,3966,0,0,4,,,,,,,0,0,0,-39.00,-36.00,-114.00,0.00,0.00,-112.00,6,62.00,10.05,15.33,0.00,-1.00,-10.00,0,,,100,100,19,2,0,0,0,2,3,,,,,0.0,0.0,-1
51.999730,-0.454916,6.30,0.00,0.91,1.50,6.30,6.30,1.53,1.65,12515,2021-08-11 17:18:21.858,2021-08-11 18:18:21.857,15,0,0,15.615,51.999723,-0.454935,0.00,-0.10,-0.90,3.90,-3.50,-11.30,0,1,0,93,100,-10814,4001,15615,2991.00,3,P-GPS,1,0,0,0,144,0,0,1628702301857,3912,3904,3983,3966,0,0,4,,,,,,,0,0,0,-39.00,-35.00,-113.00,0.00,0.00,-112.00,6,63.00,9.06,15.04,0.00,-1.00,-9.00,0,,,100,100,19,2,0,0,0,2,3,,,,,0.0,0.0,-1
51.999730,-0.454917,6.40,0.00,0.71,1.49,6.40,6.40,1.53,1.65,12607,2021-08-11 17:18:21.950,2021-08-11 18:18:21.949,15,0,0,15.615,51.999723,-0.454935,0.00,-0.10,-0.70,4.30,-3.20,-11.40,0,1,0,93,100,-10814,4001,15615,2991.00,3,P-GPS,1,0,0,0,91,0,0,1628702301949,3912,3904,3983,3966,0,0,4,,,,,,,0,0,0,-43.00,-32.00,-114.00,0.00,0.00,-112.00,6,64.00,7.07,14.91,0.00,-1.00,-7.00,0,,,100,100,19,2,0,0,0,2,3,,,,,0.0,0.0,-1
51.999730,-0.454917,6.50,0.00,0.51,1.48,6.50,6.50,1.53,1.65,12706,2021-08-11 17:18:22.048,2021-08-11 18:18:22.048,16,0,0,15.615,51.999723,-0.454935,0.00,-0.10,-0.50,4.80,-3.20,-11.40,0,1,0,93,100,-10814,4001,15615,2991.00,3,P-GPS,1,0,0,0,0,0,0,1628702302048,3912,3904,3983,3966,0,0,4,,,,,,,0,0,0,-48.00,-32.00,-114.00,0.00,0.00,-112.00,6,65.00,5.10,14.83,0.00,-1.00,-5.00,0,,,100,100,19,2,0,0,0,2,3,,,,,0.0,0.0,-1
51.999730,-0.454917,6.50,0.00,0.32,1.47,6.50,6.50,1.53,1.65,12809,2021-08-11 17:18:22.151,2021-08-11 18:18:22.151,16,0,0,15.615,51.999723,-0.454935,0.00,-0.10,-0.30,5.30,-2.40,-11.50,0,1,0,93,100,-10814,4001,15615,2991.00,3,P-GPS,1,0,0,0,0,0,0,1628702302151,3912,3904,3983,3966,0,0,4,,,,,,,0,0,0,-53.00,-24.00,-115.00,0.00,0.00,-112.00,6,65.00,3.16,14.73,0.00,-1.00,-3.00,0,,,100,100,19,2,0,0,0,2,3,,,,,0.0,0.0,-1
51.999730,-0.454918,6.50,0.00,0.22,1.46,6.50,6.50,1.53,1.65,12907,2021-08-11 17:18:22.249,2021-08-11 18:18:22.249,15,0,0,15.615,51.999723,-0.454935,0.00,0.00,-0.20,5.40,-2.40,-11.50,0,1,0,93,100,-10814,4001,15615,2991.00,3,P-GPS,1,0,0,0,0,0,0,1628702302249,3912,3904,3983,3966,0,0,4,,,,,,,0,0,0,-54.00,-24.00,-115.00,0.00,0.00,-112.00,6,65.00,2.24,14.58,0.00,0.00,-2.00,0,,,100,100,19,2,0,0,0,2,3,,,,,0.0,0.0,-1
51.999730,-0.454918,6.50,0.00,0.20,1.44,6.50,6.50,1.53,1.65,13023,2021-08-11 17:18:22.366,2021-08-11 18:18:22.365,15,0,0,15.615,51.999723,-0.454935,0.00,0.00,-0.20,5.00,-2.40,-11.30,0,1,0,93,100,-10814,4001,15615,2991.00,3,P-GPS,1,0,0,0,0,0,0,1628702302365,3888,3876,3926,3922,0,0,4,,,,,,,0,0,0,-50.00,-24.00,-113.00,0.00,0.00,-112.00,6,65.00,2.00,14.43,0.00,0.00,-2.00,0,,,100,100,19,2,0,0,0,2,3,,,,,0.0,0.0,-1
51.999730,-0.454918,6.60,0.00,0.10,1.44,6.60,6.60,1.53,1.65,13206,2021-08-11 17:18:22.549,2021-08-11 18:18:22.548,15,0,0,15.615,51.999723,-0.454935,0.00,0.00,-0.10,5.10,-2.80,-11.30,0,1,0,93,100,-10814,4001,15615,2991.00,3,P-GPS,1,0,0,0,0,0,0,1628702302548,3888,3876,3926,3922,0,0,4,,,,,,,0,0,0,-51.00,-28.00,-113.00,0.00,0.00,-112.00,6,66.00,1.00,14.37,0.00,0.00,-1.00,0,,,100,100,19,2,0,0,0,2,3,,,,,0.0,0.0,-1
51.999731,-0.454918,6.60,0.00,0.20,1.45,6.60,6.60,1.53,1.65,13316,2021-08-11 17:18:22.658,2021-08-11 18:18:22.658,15,0,0,15.615,51.999723,-0.454935,0.00,0.00,-0.20,5.00,-2.80,-11.40,0,1,0,93,100,-10814,4001,15615,2991.00,3,P-GPS,1,0,0,0,0,0,0,1628702302658,3888,3876,3926,3922,0,0,4,,,,,,,0,0,0,-50.00,-28.00,-114.00,0.00,0.00,-112.00,6,66.00,2.00,14.52,0.00,0.00,-2.00,0,,,100,100,19,2,0,0,0,2,3,,,,,0.0,0.0,-1
51.999731,-0.454918,6.60,0.00,0.00,1.45,6.60,6.60,1.53,1.65,13405,2021-08-11 17:18:22.747,2021-08-11 18:18:22.747,15,0,0,15.615,51.999723,-0.454935,0.00,0.00,0.00,5.10,-2.70,-11.40,0,1,0,93,100,-10814,4001,15615,2991.00,3,P-GPS,1,0,0,0,0,0,0,1628702302747,3888,3876,3926,3922,0,0,4,,,,,,,0,0,0,-51.00,-27.00,-114.00,0.00,0.00,-112.00,6,66.00,0.00,14.53,0.00,0.00,0.00,0,,,100,100,19,2,0,0,0,2,3,,,,,0.0,0.0,-1
51.999731,-0.454919,6.60,0.00,0.10,1.45,6.60,6.60,1.53,1.65,13506,2021-08-11 17:18:22.848,2021-08-11 18:18:22.848,15,0,0,15.441,51.999723,-0.454935,0.10,0.00,0.00,5.30,-2.70,-11.30,0,1,0,93,100,-12795,4001,15441,2991.00,3,P-GPS,1,0,0,0,0,0,0,1628702302848,3888,3876,3926,3922,0,0,4,,,,,,,0,0,0,-53.00,-27.00,-113.00,0.00,0.00,-112.00,6,66.00,1.00,14.45,1.00,0.00,0.00,0,,,100,100,19,2,0,0,0,2,3,,,,,0.0,0.0,-1
51.999731,-0.454919,6.60,0.00,0.10,1.45,6.60,6.60,1.53,1.65,13608,2021-08-11 17:18:22.950,2021-08-11 18:18:22.950,15,0,0,15.441,51.999723,-0.454935,0.10,0.00,0.00,5.70,-2.20,-11.20,0,1,0,93,100,-12795,4001,15441,2991.00,3,P-GPS,1,0,0,0,0,0,0,1628702302950,3888,3876,3926,3922,0,0,4,,,,,,,0,0,0,-57.00,-22.00,-112.00,0.00,0.00,-111.00,6,66.00,1.00,14.52,1.00,0.00,0.00,0,,,100,100,19,2,0,0,0,2,3,,,,,0.0,0.0,-1
51.999731,-0.454919,6.60,0.00,0.10,1.46,6.60,6.60,1.53,1.65,13809,2021-08-11 17:18:23.151,2021-08-11 18:18:23.151,15,0,0,15.441,51.999723,-0.454935,0.10,0.00,0.00,6.30,-1.60,-11.40,0,1,0,93,100,-12795,4001,15441,2991.00,3,P-GPS,1,0,0,0,0,0,0,1628702303151,3888,3876,3926,3922,0,0,4,,,,,,,0,0,0,-63.00,-16.00,-114.00,0.00,0.00,-111.00,6,66.00,1.00,14.59,1.00,0.00,0.00,0,,,100,100,19,2,0,0,0,2,3,,,,,0.0,0.0,-1
51.999732,-0.454919,6.50,0.00,0.14,1.48,6.60,6.60,1.53,1.65,13940,2021-08-11 17:18:23.283,2021-08-11 18:18:23.282,15,0,0,15.441,51.999723,-0.454935,0.10,0.10,0.00,6.40,-2.20,-11.40,0,1,0,93,100,-12795,4001,15441,2991.00,3,P-GPS,1,0,0,0,0,0,0,1628702303282,3888,3876,3926,3922,0,0,4,,,,,,,0,0,0,-64.00,-22.00,-114.00,0.00,0.00,-112.00,6,65.00,1.41,14.82,1.00,1.00,0.00,0,,,100,100,19,2,0,0,0,2,3,,,,,0.0,0.0,-1
51.999732,-0.454918,6.50,0.00,0.14,1.54,6.60,6.60,1.53,1.65,14117,2021-08-11 17:18:23.459,2021-08-11 18:18:23.459,15,0,0,15.441,51.999723,-0.454935,0.10,0.10,0.00,6.90,-3.80,-11.10,0,1,0,93,100,-12795,4001,15441,2991.00,3,P-GPS,1,0,0,0,0,0,0,1628702303459,3888,3876,3926,3922,0,0,4,,,,,,,0,0,0,-69.00,-38.00,-111.00,0.00,0.00,-111.00,6,65.00,1.41,15.36,1.00,1.00,0.00,0,,,100,100,19,2,0,0,0,2,3,,,,,0.0,0.0,-1
51.999732,-0.454918,6.50,0.00,0.14,1.56,6.60,6.60,1.53,1.65,14208,2021-08-11 17:18:23.550,2021-08-11 18:18:23.550,15,0,0,15.441,51.999723,-0.454935,0.10,0.10,0.00,7.10,-4.80,-11.10,0,1,0,93,100,-12795,4001,15441,2991.00,3,P-GPS,1,0,0,0,0,0,0,1628702303550,3888,3876,3926,3922,0,0,4,,,,,,,0,0,0,-71.00,-48.00,-111.00,0.00,0.00,-111.00,6,65.00,1.41,15.58,1.00,1.00,0.00,0,,,100,100,19,2,0,0,0,2,3,,,,,0.0,0.0,-1
51.999732,-0.454918,6.50,0.00,0.14,1.59,6.60,6.60,1.53,1.65,14308,2021-08-11 17:18:23.651,2021-08-11 18:18:23.650,15,0,0,15.441,51.999723,-0.454935,0.10,0.10,0.00,7.50,-5.30,-11.20,0,1,0,93,100,-12795,4001,15441,2991.00,3,P-GPS,1,0,0,0,0,0,0,1628702303650,3888,3876,3926,3922,0,0,4,,,,,,,0,0,0,-75.00,-53.00,-112.00,0.00,0.00,-111.00,6,65.00,1.41,15.92,1.00,1.00,0.00,0,,,100,100,19,2,0,0,0,2,3,,,,,0.0,0.0,-1
51.999733,-0.454918,6.50,0.00,0.14,1.62,6.60,6.60,1.53,1.65,14407,2021-08-11 17:18:23.749,2021-08-11 18:18:23.749,15,0,0,15.441,51.999723,-0.454935,0.10,0.10,0.00,7.60,-5.60,-11.40,0,1,0,93,100,-12795,4001,15441,2991.00,3,P-GPS,1,0,0,0,0,0,0,1628702303749,3888,3876,3926,3922,0,0,4,,,,,,,0,0,0,-76.00,-56.00,-114.00,0.00,0.00,-111.00,6,65.00,1.41,16.15,1.00,1.00,0.00,0,,,100,100,19,2,0,0,0,2,3,,,,,0.0,0.0,-1
51.999733,-0.454917,6.50,0.00,0.14,1.66,6.60,6.60,1.53,1.66,14610,2021-08-11 17:18:23.953,2021-08-11 18:18:23.952,15,0,0,15.652,51.999723,-0.454935,0.10,0.10,0.00,8.10,-5.50,-11.50,0,1,0,93,100,-10397,4001,15652,2991.00,3,P-GPS,1,0,0,0,0,0,0,1628702303952,3888,3876,3926,3922,0,0,4,,,,,,,0,0,0,-81.00,-55.00,-115.00,0.00,0.00,-111.00,6,65.00,1.41,16.59,1.00,1.00,0.00,0,,,100,100,19,2,0,0,0,2,3,,,,,0.0,0.0,-1
51.999733,-0.454917,6.50,0.00,0.14,1.70,6.60,6.60,1.53,1.70,14710,2021-08-11 17:18:24.052,2021-08-11 18:18:24.052,16,0,0,15.652,51.999723,-0.454935,0.10,0.10,0.00,8.00,-5.90,-11.50,0,1,0,93,100,-10397,4001,15652,2991.00,3,P-GPS,1,0,0,0,0,0,0,1628702304052,3888,3876,3926,3922,0,0,4,,,,,,,0,0,0,-80.00,-59.00,-115.00,0.00,0.00,-111.00,6,65.00,1.41,16.99,1.00,1.00,0.00,0,,,100,100,19,2,0,0,0,2,3,,,,,0.0,0.0,-1
51.999733,-0.454916,6.50,0.00,0.10,1.72,6.60,6.60,1.53,1.72,14810,2021-08-11 17:18:24.152,2021-08-11 18:18:24.152,16,0,0,15.652,51.999723,-0.454935,0.00,0.10,0.00,8.10,-5.80,-11.50,0,1,0,93,100,-10397,4001,15652,2991.00,3,P-GPS,1,0,0,0,0,0,0,1628702304152,3888,3876,3926,3922,0,0,4,,,,,,,0,0,0,-81.00,-58.00,-115.00,0.00,0.00,-111.00,6,65.00,1.00,17.21,0.00,1.00,0.00,0,,,100,100,19,2,0,0,0,2,3,,,,,0.0,0.0,-1
51.999733,-0.454916,6.50,0.00,0.10,1.74,6.60,6.60,1.53,1.74,14904,2021-08-11 17:18:24.247,2021-08-11 18:18:24.246,16,0,0,15.652,51.999723,-0.454935,0.00,0.10,0.00,7.80,-6.40,-11.50,0,1,0,93,100,-10397,4001,15652,2991.00,3,P-GPS,1,0,0,0,0,0,0,1628702304246,3888,3876,3926,3922,0,0,4,,,,,,,0,0,0,-78.00,-64.00,-115.00,0.00,0.00,-111.00,6,65.00,1.00,17.44,0.00,1.00,0.00,0,,,100,100,19,2,0,0,0,2,3,,,,,0.0,0.0,-1
51.999733,-0.454916,6.50,0.00,0.10,1.77,6.60,6.60,1.53,1.77,15010,2021-08-11 17:18:24.352,2021-08-11 18:18:24.352,16,0,0,15.652,51.999723,-0.454935,0.00,0.10,0.00,8.00,-6.70,-11.60,0,1,0,93,100,-10397,4001,15652,2991.00,3,P-GPS,1,0,0,0,0,0,0,1628702304352,3888,3876,3926,3922,0,0,4,,,,,,,0,0,0,-80.00,-67.00,-116.00,0.00,0.00,-111.00,6,65.00,1.00,17.72,0.00,1.00,0.00,0,,,100,100,19,2,0,0,0,2,3,,,,,0.0,0.0,-1
51.999733,-0.454915,6.50,0.00,0.10,1.81,6.60,6.60,1.53,1.81,15215,2021-08-11 17:18:24.557,2021-08-11 18:18:24.557,16,0,0,15.652,51.999723,-0.454935,0.00,0.10,0.00,7.80,-6.60,-11.60,0,1,0,93,100,-10397,4001,15652,2991.00,3,P-GPS,1,0,0,0,0,0,0,1628702304557,3888,3876,3926,3922,0,0,4,,,,,,,0,0,0,-78.00,-66.00,-116.00,0.00,0.00,-111.00,6,65.00,1.00,18.08,0.00,1.00,0.00,0,,,100,100,19,2,0,0,0,2,3,,,,,0.0,0.0,-1
51.999734,-0.454915,6.50,0.00,0.10,1.83,6.60,6.60,1.53,1.83,15311,2021-08-11 17:18:24.654,2021-08-11 18:18:24.653,16,0,0,15.652,51.999723,-0.454935,0.00,0.10,0.00,7.90,-7.10,-11.60,0,1,0,93,100,-10397,4001,15652,2991.00,3,P-GPS,1,0,0,0,0,0,0,1628702304653,3888,3876,3926,3922,0,0,4,,,,,,,0,0,0,-79.00,-71.00,-116.00,0.00,0.00,-111.00,6,65.00,1.00,18.29,0.00,1.00,0.00,0,,,100,100,19,2,0,0,0,2,3,,,,,0.0,0.0,-1
51.999734,-0.454915,6.50,0.00,0.10,1.84,6.60,6.60,1.53,1.84,15410,2021-08-11 17:18:24.753,2021-08-11 18:18:24.753,16,0,0,15.652,51.999723,-0.454935,0.00,0.10,0.00,7.80,-7.40,-11.70,0,1,0,93,100,-10397,4001,15652,2991.00,3,P-GPS,1,0,0,0,0,0,0,1628702304752,3888,3876,3926,3922,0,0,4,,,,,,,0,0,0,-78.00,-74.00,-117.00,0.00,0.00,-111.00,6,65.00,1.00,18.44,0.00,1.00,0.00,0,,,100,100,19,2,0,0,0,2,3,,,,,0.0,0.0,-1
51.999734,-0.454914,6.50,0.00,0.10,1.85,6.60,6.60,1.53,1.85,15516,2021-08-11 17:18:24.859,2021-08-11 18:18:24.858,16,0,0,15.666,51.999723,-0.454935,0.00,0.10,0.00,7.80,-7.90,-11.70,0,1,0,93,100,-9997,4001,15666,2991.00,3,P-GPS,1,0,0,0,0,0,0,1628702304858,3888,3876,3926,3922,0,0,4,,,,,,,0,0,0,-78.00,-79.00,-117.00,0.00,0.00,-111.00,6,65.00,1.00,18.51,0.00,1.00,0.00,0,,,100,100,19,2,0,0,0,2,3,,,,,0.0,0.0,-1
51.999734,-0.454914,6.50,0.00,0.10,1.87,6.60,6.60,1.53,1.87,15614,2021-08-11 17:18:24.956,2021-08-11 18:18:24.956,16,0,0,15.666,51.999723,-0.454935,0.00,0.10,0.00,7.70,-7.30,-11.80,0,1,0,93,100,-9997,4001,15666,2991.00,3,P-GPS,1,0,0,0,0,0,0,1628702304956,3888,3876,3926,3922,0,0,4,,,,,,,0,0,0,-77.00,-73.00,-118.00,0.00,0.00,-111.00,6,65.00,1.00,18.71,0.00,1.00,0.00,0,,,100,100,19,2,0,0,0,2,3,,,,,0.0,0.0,-1
51.999733,-0.454914,6.50,0.00,0.10,1.88,6.60,6.60,1.53,1.88,15809,2021-08-11 17:18:25.151,2021-08-11 18:18:25.151,16,0,0,15.666,51.999723,-0.454935,0.00,0.10,0.00,7.60,-7.20,-11.80,0,1,0,93,100,-9997,4001,15666,2991.00,3,P-GPS,1,0,0,0,0,0,0,1628702305151,3888,3876,3926,3922,0,0,4,,,,,,,0,0,0,-76.00,-72.00,-118.00,0.00,0.00,-111.00,6,65.00,1.00,18.76,0.00,1.00,0.00,0,,,100,100,19,2,0,0,0,2,3,,,,,0.0,0.0,-1
51.999733,-0.454913,6.50,0.00,0.14,1.88,6.60,6.60,1.53,1.88,16013,2021-08-11 17:18:25.356,2021-08-11 18:18:25.355,16,0,0,15.666,51.999723,-0.454935,-0.10,0.10,0.00,6.90,-7.10,-11.70,0,1,0,93,100,-9997,4001,15666,2991.00,3,P-GPS,1,0,0,0,0,0,0,1628702305355,3888,3876,3926,3922,0,0,4,,,,,,,0,0,0,-69.00,-71.00,-117.00,0.00,0.00,-111.00,6,65.00,1.41,18.81,-1.00,1.00,0.00,0,,,100,100,19,2,0,0,0,2,3,,,,,0.0,0.0,-1
51.999733,-0.454913,6.50,0.00,0.14,1.88,6.60,6.60,1.53,1.88,16151,2021-08-11 17:18:25.493,2021-08-11 18:18:25.493,16,0,0,15.666,51.999723,-0.454935,-0.10,0.10,0.00,6.80,-7.20,-11.70,0,1,0,93,100,-9997,4001,15666,2991.00,3,P-GPS,1,0,0,0,0,0,0,1628702305493,3888,3876,3926,3922,0,0,4,,,,,,,0,0,0,-68.00,-72.00,-117.00,0.00,0.00,-111.00,6,65.00,1.41,18.82,-1.00,1.00,0.00,0,,,100,100,19,2,0,0,0,2,3,,,,,0.0,0.0,-1
51.999733,-0.454913,6.50,0.00,0.14,1.89,6.60,6.60,1.53,1.89,16216,2021-08-11 17:18:25.558,2021-08-11 18:18:25.558,16,0,0,15.666,51.999723,-0.454935,-0.10,0.10,0.00,6.80,-7.30,-11.80,0,1,0,93,100,-9997,4001,15666,2991.00,3,P-GPS,1,0,0,0,0,0,0,1628702305558,3888,3876,3926,3922,0,0,4,,,,,,,0,0,0,-68.00,-73.00,-118.00,0.00,0.00,-111.00,6,65.00,1.41,18.86,-1.00,1.00,0.00,0,,,100,100,19,2,0,0,0,2,3,,,,,0.0,0.0,-1
