latitude,longitude,altitude(m),ultrasonicHeight(m),speed(mps),distance(m),max_altitude(m),max_ascent(m),max_speed(mps),max_distance(m),time(millisecond),datetime(utc),datetime(local),satellites,pressure(Pa),temperature(F),voltage(v),home_latitude,home_longitude,velocityX(mps),velocityY(mps),velocityZ(mps),pitch(deg),roll(deg),yaw(deg),powerlevel,isflying,istakingphoto,remainPowerPercent,remainLifePercent,currentCurrent,currentElectricity,currentVoltage,batteryTemperature,dischargeCount,flightmode,isMotorsOn,isTakingVideo,Rc_elevator,Rc_aileron,Rc_throttle,Rc_rudder,Rc_gyro,timestamp,Battery_Cell1,Battery_Cell2,Battery_Cell3,Battery_Cell4,Battery_Cell5,Battery_Cell6,Dronetype,AppVersion,Planename,FlyControllerSerialNumber,RemoteSerialNumber,BatterySerialNumber,CENTER_BATTERY.productDate,CENTER_BATTERY.serialNo,CENTER_BATTERY.fullCapacity,CENTER_BATTERY.productDateRaw,pitchRaw,rollRaw,yawRaw,gimbalPitchRaw,gimbalRollRaw,gimbalYawRaw,flyState,altitudeRaw,speedRaw,distanceRaw,velocityXRaw,velocityYRaw,velocityZRaw,data_reuse,App_Tip,App_Warning,downlinkSignalQuality,uplinkSignalQuality,transmissionChannel,rcModeSwitch,rcHome,rcPause,rcTransform,rcJoystickMode,appMode,FlyControllerSerialNumber_legacy,RemoteSerialNumber_legacy,BatterySerialNumber_legacy,Battery2SerialNumber,frontAvoidDist,backAvoidDist,isBrakingToAvoid
51.999752,-0.454896,-0.10,0.00,0.51,0.27,0.00,0.00,0.51,0.27,0,2021-08-11 17:28:06.343,2021-08-11 18:28:06.342,16,0,0,15.140,51.999751,-0.454899,0.10,0.40,-0.30,4.80,-1.90,68.90,0,1,0,50,100,-3481,2151,15140,3161.00,3,P-GPS,1,1,0,1,87,0,0,1628702886342,3790,3784,3822,3808,0,0,4,Litchi_4.18.0-g,Airspeed Phantom 3 Pro,03Z1361171,078JBS7306,6171163421965,2016-01-18,809,4303,18482,-48.00,-19.00,689.00,0.00,0.00,703.00,6,-1.00,5.10,2.71,1.00,4.00,-3.00,0,,,100,100,19,2,0,0,0,2,0,,,,null,0.0,0.0,-1
51.999753,-0.454895,0.00,0.70,0.44,0.33,0.00,0.00,0.51,0.33,96,2021-08-11 17:28:06.438,2021-08-11 18:28:06.438,15,0,0,15.140,51.999751,-0.454899,0.10,0.30,-0.30,5.50,-1.50,68.70,0,1,0,50,100,-3481,2151,15140,3161.00,3,P-GPS,1,1,0,0,294,0,0,1628702886438,3790,3784,3822,3808,0,0,4,,,,,,,0,0,0,-55.00,-15.00,687.00,0.00,0.00,702.00,6,0.00,4.36,3.28,1.00,3.00,-3.00,0,,,100,100,19,2,0,0,0,2,0,,,,,0.0,0.0,-1
51.999753,-0.454894,0.00,0.70,0.57,0.36,0.00,0.00,0.57,0.36,205,2021-08-11 17:28:06.547,2021-08-11 18:28:06.547,15,0,0,15.140,51.999751,-0.454899,0.20,0.20,-0.50,5.60,-0.70,68.60,0,1,0,50,100,-3481,2151,15140,3161.00,3,P-GPS,1,1,0,0,317,0,0,1628702886547,3790,3784,3822,3808,0,0,4,,,,,,,0,0,0,-56.00,-7.00,686.00,0.00,0.00,701.00,6,0.00,5.74,3.57,2.00,2.00,-5.00,0,,,100,100,19,2,0,0,0,2,0,,,,,0.0,0.0,-1
51.999753,-0.454894,0.00,0.80,0.85,0.40,0.00,0.00,0.85,0.40,301,2021-08-11 17:28:06.643,2021-08-11 18:28:06.643,15,0,0,15.140,51.999751,-0.454899,0.20,0.20,-0.80,5.40,0.10,68.50,0,1,0,50,100,-3481,2151,15140,3161.00,3,P-GPS,1,1,0,0,317,0,0,1628702886643,3790,3784,3822,3808,0,0,4,,,,,,,0,0,0,-54.00,1.00,685.00,0.00,0.00,701.00,6,0.00,8.49,4.00,2.00,2.00,-8.00,0,,,100,100,19,2,0,0,0,2,0,,,,,0.0,0.0,-1
51.999753,-0.454894,0.00,0.90,1.12,0.43,0.00,0.00,1.12,0.43,423,2021-08-11 17:28:06.766,2021-08-11 18:28:06.765,15,0,0,15.140,51.999751,-0.454899,0.20,0.10,-1.10,5.50,0.80,68.50,0,1,0,50,100,-3481,2151,15140,3161.00,3,P-GPS,1,1,0,0,303,0,0,1628702886765,3790,3784,3822,3808,0,0,4,,,,,,,0,0,0,-55.00,8.00,685.00,0.00,0.00,700.00,6,0.00,11.22,4.31,2.00,1.00,-11.00,0,,,100,100,19,2,0,0,0,2,0,,,,,0.0,0.0,-1
51.999754,-0.454893,0.40,1.00,1.44,0.51,0.40,0.40,1.44,0.51,589,2021-08-11 17:28:06.932,2021-08-11 18:28:06.931,15,0,0,14.879,51.999751,-0.454899,0.30,0.10,-1.40,6.30,1.50,69.20,0,1,0,50,100,-7883,2108,14879,3161.00,3,P-GPS,1,1,0,0,188,0,0,1628702886931,3790,3784,3822,3808,0,0,4,,,,,,,0,0,0,-63.00,15.00,692.00,0.00,0.00,699.00,6,4.00,14.35,5.06,3.00,1.00,-14.00,0,,,100,100,19,2,0,0,0,2,0,,,,,0.0,0.0,-1
51.999754,-0.454893,0.50,1.10,1.24,0.54,0.50,0.50,1.44,0.54,694,2021-08-11 17:28:07.036,2021-08-11 18:28:07.036,15,0,0,14.879,51.999751,-0.454899,0.30,0.10,-1.20,6.00,2.10,69.50,0,1,0,50,100,-7883,2108,14879,3161.00,3,P-GPS,1,1,0,0,118,0,0,1628702887036,3790,3784,3822,3808,0,0,4,,,,,,,0,0,0,-60.00,21.00,695.00,0.00,0.00,699.00,6,5.00,12.41,5.42,3.00,1.00,-12.00,0,,,100,100,19,2,0,0,0,2,0,,,,,0.0,0.0,-1
51.999755,-0.454893,0.60,1.20,0.86,0.59,0.60,0.60,1.44,0.59,790,2021-08-11 17:28:07.133,2021-08-11 18:28:07.132,15,0,0,14.879,51.999751,-0.454899,0.30,0.10,-0.80,6.70,3.10,69.80,0,1,0,50,100,-7883,2108,14879,3161.00,3,P-GPS,1,1,0,0,91,0,0,1628702887132,3790,3784,3822,3808,0,0,4,,,,,,,0,0,0,-67.00,31.00,698.00,0.00,0.00,699.00,6,6.00,8.60,5.86,3.00,1.00,-8.00,0,,,100,100,19,2,0,0,0,2,0,,,,,0.0,0.0,-1
51.999755,-0.454893,0.70,1.20,0.68,0.62,0.70,0.70,1.44,0.62,892,2021-08-11 17:28:07.234,2021-08-11 18:28:07.234,16,0,0,14.879,51.999751,-0.454899,0.30,0.10,-0.60,7.40,3.80,69.90,0,1,0,50,100,-7883,2108,14879,3161.00,3,P-GPS,1,1,0,0,114,0,0,1628702887234,3790,3784,3822,3808,0,0,4,,,,,,,0,0,0,-74.00,38.00,699.00,0.00,0.00,699.00,6,7.00,6.78,6.22,3.00,1.00,-6.00,0,,,100,100,19,2,0,0,0,2,0,,,,,0.0,0.0,-1
51.999755,-0.454892,0.70,1.30,0.46,0.65,0.70,0.70,1.44,0.65,994,2021-08-11 17:28:07.337,2021-08-11 18:28:07.336,16,0,0,14.879,51.999751,-0.454899,0.20,0.10,-0.40,7.40,4.00,69.90,0,1,0,50,100,-7883,2108,14879,3161.00,3,P-GPS,1,1,0,1,48,0,0,1628702887336,3790,3784,3822,3808,0,0,4,,,,,,,0,0,0,-74.00,40.00,699.00,0.00,0.00,699.00,6,7.00,4.58,6.52,2.00,1.00,-4.00,0,,,100,100,19,2,0,0,0,2,0,,,,,0.0,0.0,-1
51.999756,-0.454892,0.70,1.30,0.37,0.71,0.70,0.70,1.44,0.71,1101,2021-08-11 17:28:07.443,2021-08-11 18:28:07.443,15,0,0,14.879,51.999751,-0.454899,0.20,0.10,-0.30,7.20,4.10,69.90,0,1,0,50,100,-7883,2108,14879,3161.00,3,P-GPS,1,1,0,0,38,0,0,1628702887443,3790,3784,3822,3808,0,0,4,,,,,,,0,0,0,-72.00,41.00,699.00,0.00,0.00,699.00,6,7.00,3.74,7.10,2.00,1.00,-3.00,0,,,100,100,19,2,0,0,0,2,0,,,,,0.0,0.0,-1
51.999757,-0.454892,0.70,1.30,0.20,0.76,0.70,0.70,1.44,0.76,1293,2021-08-11 17:28:07.635,2021-08-11 18:28:07.635,15,0,0,14.879,51.999751,-0.454899,0.20,0.00,0.00,7.20,5.50,69.80,0,1,0,50,100,-7883,2108,14879,3161.00,3,P-GPS,1,1,0,0,3,0,0,1628702887635,3790,3784,3822,3808,0,0,4,,,,,,,0,0,0,-72.00,55.00,698.00,0.00,0.00,699.00,6,7.00,2.00,7.60,2.00,0.00,0.00,0,,,100,100,19,2,0,0,0,2,0,,,,,0.0,0.0,-1
51.999757,-0.454892,0.70,1.30,0.10,0.79,0.70,0.70,1.44,0.79,1393,2021-08-11 17:28:07.736,2021-08-11 18:28:07.736,15,0,0,14.817,51.999751,-0.454899,0.10,0.00,0.00,7.00,6.00,69.80,0,1,0,49,100,-10667,2108,14817,3161.00,3,P-GPS,1,1,0,1,8,0,0,1628702887735,3790,3784,3822,3808,0,0,4,,,,,,,0,0,0,-70.00,60.00,698.00,0.00,0.00,699.00,6,7.00,1.00,7.86,1.00,0.00,0.00,0,,,100,100,19,2,0,0,0,2,0,,,,,0.0,0.0,-1
51.999757,-0.454892,0.70,1.30,0.10,0.80,0.70,0.70,1.44,0.80,1496,2021-08-11 17:28:07.838,2021-08-11 18:28:07.838,15,0,0,14.817,51.999751,-0.454899,0.10,0.00,0.00,6.70,5.50,69.80,0,1,0,49,100,-10667,2108,14817,3161.00,3,P-GPS,1,1,0,0,10,0,0,1628702887838,3790,3784,3822,3808,0,0,4,,,,,,,0,0,0,-67.00,55.00,698.00,0.00,0.00,698.00,6,7.00,1.00,7.97,1.00,0.00,0.00,0,,,100,100,19,2,0,0,0,2,0,,,,,0.0,0.0,-1
51.999757,-0.454892,0.70,1.30,0.00,0.81,0.70,0.70,1.44,0.81,1594,2021-08-11 17:28:07.936,2021-08-11 18:28:07.936,15,0,0,14.817,51.999751,-0.454899,0.00,0.00,0.00,6.80,5.40,69.90,0,1,0,49,100,-10667,2108,14817,3161.00,3,P-GPS,1,1,0,0,10,0,0,1628702887936,3790,3784,3822,3808,0,0,4,,,,,,,0,0,0,-68.00,54.00,699.00,0.00,0.00,698.00,6,7.00,0.00,8.06,0.00,0.00,0.00,0,,,100,100,19,2,0,0,0,2,0,,,,,0.0,0.0,-1
51.999757,-0.454892,0.70,1.30,0.00,0.81,0.70,0.70,1.44,0.81,1704,2021-08-11 17:28:08.046,2021-08-11 18:28:08.046,15,0,0,14.817,51.999751,-0.454899,0.00,0.00,0.00,6.30,5.50,69.80,0,1,0,49,100,-10667,2108,14817,3161.00,3,P-GPS,1,1,0,0,26,0,0,1628702888046,3790,3784,3822,3808,0,0,4,,,,,,,0,0,0,-63.00,55.00,698.00,0.00,0.00,698.00,6,7.00,0.00,8.07,0.00,0.00,0.00,0,,,100,100,19,2,0,0,0,2,0,,,,,0.0,0.0,-1
51.999757,-0.454892,0.70,1.50,0.00,0.81,0.70,0.70,1.44,0.81,1796,2021-08-11 17:28:08.138,2021-08-11 18:28:08.138,15,0,0,14.817,51.999751,-0.454899,0.00,0.00,0.00,6.00,5.10,69.90,0,1,0,49,100,-10667,2108,14817,3161.00,3,P-GPS,1,1,0,0,123,0,0,1628702888138,3790,3784,3822,3808,0,0,4,,,,,,,0,0,0,-60.00,51.00,699.00,0.00,0.00,698.00,6,7.00,0.00,8.08,0.00,0.00,0.00,0,,,100,100,19,2,0,0,0,2,0,,,,,0.0,0.0,-1
51.999757,-0.454892,0.70,0.00,0.00,0.79,0.70,0.70,1.44,0.81,1892,2021-08-11 17:28:08.234,2021-08-11 18:28:08.234,15,0,0,14.817,51.999751,-0.454899,0.00,0.00,0.00,5.90,4.60,69.90,0,1,0,49,100,-10667,2108,14817,3161.00,3,P-GPS,1,1,0,1,198,0,0,1628702888234,3790,3784,3822,3808,0,0,4,,,,,,,0,0,0,-59.00,46.00,699.00,0.00,0.00,698.00,6,7.00,0.00,7.93,0.00,0.00,0.00,0,,,100,100,19,2,0,0,0,2,0,,,,,0.0,0.0,-1
51.999757,-0.454893,0.80,0.00,0.32,0.79,0.80,0.80,1.44,0.81,1995,2021-08-11 17:28:08.338,2021-08-11 18:28:08.337,15,0,0,14.817,51.999751,-0.454899,-0.10,0.00,-0.30,5.50,4.10,69.80,0,1,0,49,100,-10667,2108,14817,3161.00,3,P-GPS,1,1,0,0,193,0,0,1628702888337,3790,3784,3822,3808,0,0,4,,,,,,,0,0,0,-55.00,41.00,698.00,0.00,0.00,698.00,6,8.00,3.16,7.91,-1.00,0.00,-3.00,0,,,100,100,19,2,0,0,0,2,0,,,,,0.0,0.0,-1
51.999757,-0.454893,0.80,0.00,0.81,0.77,0.80,0.80,1.44,0.81,2094,2021-08-11 17:28:08.437,2021-08-11 18:28:08.436,15,0,0,14.817,51.999751,-0.454899,-0.10,0.00,-0.80,5.30,3.60,69.80,0,1,0,49,100,-10667,2108,14817,3161.00,3,P-GPS,1,1,0,0,187,0,0,1628702888436,3790,3784,3822,3808,0,0,4,,,,,,,0,0,0,-53.00,36.00,698.00,0.00,0.00,698.00,6,8.00,8.06,7.65,-1.00,0.00,-8.00,0,,,100,100,19,2,0,0,0,2,0,,,,,0.0,0.0,-1
51.999757,-0.454893,0.90,2.30,0.71,0.75,0.90,0.90,1.44,0.81,2194,2021-08-11 17:28:08.536,2021-08-11 18:28:08.536,15,0,0,14.817,51.999751,-0.454899,-0.10,0.00,-0.70,5.00,2.80,69.80,0,1,0,49,100,-10667,2108,14817,3161.00,3,P-GPS,1,1,0,0,130,0,0,1628702888536,3790,3784,3822,3808,0,0,4,,,,,,,0,0,0,-50.00,28.00,698.00,0.00,0.00,698.00,6,9.00,7.07,7.53,-1.00,0.00,-7.00,0,,,100,100,19,2,0,0,0,2,0,,,,,0.0,0.0,-1
51.999757,-0.454893,1.00,2.30,0.61,0.72,1.00,1.00,1.44,0.81,2299,2021-08-11 17:28:08.641,2021-08-11 18:28:08.641,15,0,0,14.817,51.999751,-0.454899,-0.10,0.00,-0.60,4.80,2.60,69.80,0,1,0,49,100,-10667,2108,14817,3161.00,3,P-GPS,1,1,0,0,67,0,0,1628702888641,3790,3784,3822,3808,0,0,4,,,,,,,0,0,0,-48.00,26.00,698.00,0.00,0.00,698.00,6,10.00,6.08,7.24,-1.00,0.00,-6.00,0,,,100,100,19,2,0,0,0,2,0,,,,,0.0,0.0,-1
51.999756,-0.454893,1.00,2.40,0.32,0.71,1.00,1.00,1.44,0.81,2392,2021-08-11 17:28:08.734,2021-08-11 18:28:08.734,15,0,0,14.817,51.999751,-0.454899,-0.10,0.00,-0.30,4.80,2.30,69.80,0,1,0,49,100,-10667,2108,14817,3161.00,3,P-GPS,1,1,0,0,95,0,0,1628702888734,3790,3784,3822,3808,0,0,4,,,,,,,0,0,0,-48.00,23.00,698.00,0.00,0.00,698.00,6,10.00,3.16,7.11,-1.00,0.00,-3.00,0,,,100,100,19,2,0,0,0,2,0,,,,,0.0,0.0,-1
51.999756,-0.454893,1.10,2.40,0.22,0.68,1.10,1.10,1.44,0.81,2505,2021-08-11 17:28:08.848,2021-08-11 18:28:08.847,16,0,0,14.873,51.999751,-0.454899,-0.10,0.00,-0.20,5.00,2.30,69.80,0,1,0,49,100,-10651,2108,14873,3161.00,3,P-GPS,1,1,0,0,92,0,0,1628702888847,3790,3784,3822,3808,0,0,4,,,,,,,0,0,0,-50.00,23.00,698.00,0.00,0.00,698.00,6,11.00,2.24,6.77,-1.00,0.00,-2.00,0,,,100,100,19,2,0,0,0,2,0,,,,,0.0,0.0,-1
51.999756,-0.454893,1.20,0.00,0.22,0.63,1.20,1.20,1.44,0.81,2716,2021-08-11 17:28:09.058,2021-08-11 18:28:09.058,16,0,0,14.873,51.999751,-0.454899,-0.10,0.00,-0.20,5.10,1.00,69.90,0,1,0,49,100,-10651,2108,14873,3161.00,3,P-GPS,1,1,0,0,97,0,0,1628702889058,3790,3784,3822,3808,0,0,4,,,,,,,0,0,0,-51.00,10.00,699.00,0.00,0.00,698.00,6,12.00,2.24,6.30,-1.00,0.00,-2.00,0,,,100,100,19,2,0,0,0,2,0,,,,,0.0,0.0,-1
51.999756,-0.454893,1.20,0.00,0.24,0.61,1.20,1.20,1.44,0.81,2816,2021-08-11 17:28:09.158,2021-08-11 18:28:09.158,16,0,0,14.873,51.999751,-0.454899,-0.10,-0.10,-0.20,4.70,0.90,69.80,0,1,0,49,100,-10651,2108,14873,3161.00,3,P-GPS,1,1,0,0,72,0,0,1628702889158,3790,3784,3822,3808,0,0,4,,,,,,,0,0,0,-47.00,9.00,698.00,0.00,0.00,698.00,6,12.00,2.45,6.13,-1.00,-1.00,-2.00,0,,,100,100,19,2,0,0,0,2,0,,,,,0.0,0.0,-1
51.999755,-0.454893,1.20,1.80,0.17,0.59,1.20,1.20,1.44,0.81,2906,2021-08-11 17:28:09.248,2021-08-11 18:28:09.248,16,0,0,14.873,51.999751,-0.454899,-0.10,-0.10,-0.10,4.00,1.20,69.70,0,1,0,49,100,-10651,2108,14873,3161.00,3,P-GPS,1,1,0,0,72,0,0,1628702889248,3790,3784,3822,3808,0,0,4,,,,,,,0,0,0,-40.00,12.00,697.00,0.00,0.00,698.00,6,12.00,1.73,5.93,-1.00,-1.00,-1.00,0,,,100,100,19,2,0,0,0,2,0,,,,,0.0,0.0,-1
51.999755,-0.454894,1.20,1.80,0.10,0.57,1.20,1.20,1.44,0.81,3004,2021-08-11 17:28:09.347,2021-08-11 18:28:09.346,16,0,0,14.873,51.999751,-0.454899,0.00,0.00,-0.10,3.60,1.50,69.80,0,1,0,49,100,-10651,2108,14873,3161.00,3,P-GPS,1,1,0,0,96,0,0,1628702889346,3790,3784,3822,3808,0,0,4,,,,,,,0,0,0,-36.00,15.00,698.00,0.00,0.00,698.00,6,12.00,1.00,5.67,0.00,0.00,-1.00,0,,,100,100,19,2,0,0,0,2,0,,,,,0.0,0.0,-1
51.999755,-0.454894,1.20,1.80,0.10,0.55,1.20,1.20,1.44,0.81,3104,2021-08-11 17:28:09.447,2021-08-11 18:28:09.446,16,0,0,14.873,51.999751,-0.454899,0.00,0.00,-0.10,3.50,1.70,69.80,0,1,0,49,100,-10651,2108,14873,3161.00,3,P-GPS,1,1,0,0,50,0,0,1628702889446,3790,3784,3822,3808,0,0,4,,,,,,,0,0,0,-35.00,17.00,698.00,0.00,0.00,698.00,6,12.00,1.00,5.54,0.00,0.00,-1.00,0,,,100,100,19,2,0,0,0,2,0,,,,,0.0,0.0,-1
51.999755,-0.454894,1.20,1.70,0.00,0.54,1.20,1.20,1.44,0.81,3205,2021-08-11 17:28:09.548,2021-08-11 18:28:09.547,16,0,0,14.873,51.999751,-0.454899,0.00,0.00,0.00,3.60,1.80,69.90,0,1,0,49,100,-10651,2108,14873,3161.00,3,P-GPS,1,1,0,0,106,0,0,1628702889547,3790,3784,3822,3808,0,0,4,,,,,,,0,0,0,-36.00,18.00,699.00,0.00,0.00,698.00,6,12.00,0.00,5.44,0.00,0.00,0.00,0,,,100,100,19,2,0,0,0,2,0,,,,,0.0,0.0,-1
51.999755,-0.454894,1.20,1.70,0.00,0.52,1.20,1.20,1.44,0.81,3316,2021-08-11 17:28:09.659,2021-08-11 18:28:09.658,16,0,0,14.873,51.999751,-0.454899,0.00,0.00,0.00,4.00,2.00,70.00,0,1,0,49,100,-10651,2108,14873,3161.00,3,P-GPS,1,1,0,0,109,0,0,1628702889658,3790,3784,3822,3808,0,0,4,,,,,,,0,0,0,-40.00,20.00,700.00,0.00,0.00,698.00,6,12.00,0.00,5.22,0.00,0.00,0.00,0,,,100,100,19,2,0,0,0,2,0,,,,,0.0,0.0,-1
51.999755,-0.454894,1.20,1.60,0.00,0.51,1.20,1.20,1.44,0.81,3405,2021-08-11 17:28:09.748,2021-08-11 18:28:09.747,16,0,0,14.873,51.999751,-0.454899,0.00,0.00,0.00,4.30,1.60,70.10,0,1,0,49,100,-10651,2108,14873,3161.00,3,P-GPS,1,1,0,0,111,0,0,1628702889747,3790,3784,3822,3808,0,0,4,,,,,,,0,0,0,-43.00,16.00,701.00,0.00,0.00,698.00,6,12.00,0.00,5.13,0.00,0.00,0.00,0,,,100,100,19,2,0,0,0,2,0,,,,,0.0,0.0,-1
51.999755,-0.454894,1.10,1.60,0.00,0.51,1.20,1.20,1.44,0.81,3505,2021-08-11 17:28:09.847,2021-08-11 18:28:09.847,17,0,0,14.814,51.999751,-0.454899,0.00,0.00,0.00,4.20,1.60,70.30,0,1,0,49,100,-11428,2108,14814,3161.00,3,P-GPS,1,1,0,0,127,0,0,1628702889847,3790,3784,3822,3808,0,0,4,,,,,,,0,0,0,-42.00,16.00,703.00,0.00,0.00,698.00,6,11.00,0.00,5.09,0.00,0.00,0.00,0,,,100,100,19,2,0,0,0,2,0,,,,,0.0,0.0,-1
51.999755,-0.454894,1.20,1.70,0.14,0.49,1.20,1.20,1.44,0.81,3607,2021-08-11 17:28:09.949,2021-08-11 18:28:09.949,17,0,0,14.814,51.999751,-0.454899,0.00,-0.10,-0.20,4.10,1.70,70.40,0,1,0,49,100,-11428,2108,14814,3161.00,3,P-GPS,1,1,0,0,129,0,0,1628702889949,3790,3784,3822,3808,0,0,4,,,,,,,0,0,0,-41.00,17.00,704.00,0.00,0.00,698.00,6,12.00,1.41,4.93,0.00,-1.00,-2.00,0,,,100,100,19,2,0,0,0,2,0,,,,,0.0,0.0,-1
51.999755,-0.454894,1.20,1.70,0.22,0.49,1.20,1.20,1.44,0.81,3725,2021-08-11 17:28:10.067,2021-08-11 18:28:10.067,17,0,0,14.814,51.999751,-0.454899,0.00,-0.10,-0.20,4.30,1.90,70.40,0,1,0,49,100,-11428,2108,14814,3161.00,3,P-GPS,1,1,0,0,199,0,0,1628702890067,3790,3784,3822,3808,0,0,4,,,,,,,0,0,0,-43.00,19.00,704.00,0.00,0.00,698.00,6,12.00,2.24,4.88,0.00,-1.00,-2.00,0,,,100,100,19,2,0,0,0,2,0,,,,,0.0,0.0,-1
51.999755,-0.454894,1.20,1.70,0.22,0.49,1.20,1.20,1.44,0.81,3806,2021-08-11 17:28:10.149,2021-08-11 18:28:10.148,17,0,0,14.814,51.999751,-0.454899,0.00,-0.10,-0.20,4.30,2.00,70.30,0,1,0,49,100,-11428,2108,14814,3161.00,3,P-GPS,1,1,0,0,199,0,0,1628702890148,3790,3784,3822,3808,0,0,4,,,,,,,0,0,0,-43.00,20.00,703.00,0.00,0.00,698.00,6,12.00,2.24,4.87,0.00,-1.00,-2.00,0,,,100,100,19,2,0,0,0,2,0,,,,,0.0,0.0,-1
51.999754,-0.454895,1.20,1.80,0.32,0.45,1.20,1.20,1.44,0.81,3911,2021-08-11 17:28:10.253,2021-08-11 18:28:10.253,16,0,0,14.814,51.999751,-0.454899,0.00,-0.10,-0.30,3.90,2.00,69.90,0,1,0,49,100,-11428,2108,14814,3161.00,3,P-GPS,1,1,0,0,177,0,0,1628702890253,3790,3784,3822,3808,0,0,4,,,,,,,0,0,0,-39.00,20.00,699.00,0.00,0.00,698.00,6,12.00,3.16,4.50,0.00,-1.00,-3.00,0,,,100,100,19,2,0,0,0,2,0,,,,,0.0,0.0,-1
51.999754,-0.454895,1.30,1.80,0.40,0.44,1.30,1.30,1.44,0.81,4008,2021-08-11 17:28:10.350,2021-08-11 18:28:10.350,16,0,0,14.814,51.999751,-0.454899,0.00,0.00,-0.40,3.70,1.90,69.60,0,1,0,49,100,-11428,2108,14814,3161.00,3,P-GPS,1,1,0,0,170,0,0,1628702890350,3790,3784,3822,3808,0,0,4,,,,,,,0,0,0,-37.00,19.00,696.00,0.00,0.00,698.00,6,13.00,4.00,4.40,0.00,0.00,-4.00,0,,,100,100,19,2,0,0,0,2,0,,,,,0.0,0.0,-1
51.999754,-0.454895,1.40,1.90,0.50,0.43,1.40,1.40,1.44,0.81,4104,2021-08-11 17:28:10.447,2021-08-11 18:28:10.446,16,0,0,14.814,51.999751,-0.454899,0.00,0.00,-0.50,3.60,2.10,69.60,0,1,0,49,100,-11428,2108,14814,3161.00,3,P-GPS,1,1,0,0,161,0,0,1628702890446,3790,3784,3822,3808,0,0,4,,,,,,,0,0,0,-36.00,21.00,696.00,0.00,0.00,698.00,6,14.00,5.00,4.34,0.00,0.00,-5.00,0,,,100,100,19,2,0,0,0,2,0,,,,,0.0,0.0,-1
51.999754,-0.454895,1.40,2.00,0.50,0.42,1.40,1.40,1.44,0.81,4211,2021-08-11 17:28:10.553,2021-08-11 18:28:10.553,16,0,0,14.814,51.999751,-0.454899,0.00,0.00,-0.50,3.80,2.10,69.70,0,1,0,49,100,-11428,2108,14814,3161.00,3,P-GPS,1,1,0,0,158,0,0,1628702890553,3790,3784,3822,3808,0,0,4,,,,,,,0,0,0,-38.00,21.00,697.00,0.00,0.00,698.00,6,14.00,5.00,4.23,0.00,0.00,-5.00,0,,,100,100,19,2,0,0,0,2,0,,,,,0.0,0.0,-1
51.999754,-0.454895,1.50,2.00,0.40,0.41,1.50,1.50,1.44,0.81,4311,2021-08-11 17:28:10.654,2021-08-11 18:28:10.653,16,0,0,14.814,51.999751,-0.454899,0.00,0.00,-0.40,4.20,2.00,69.90,0,1,0,49,100,-11428,2108,14814,3161.00,3,P-GPS,1,1,0,0,195,0,0,1628702890653,3790,3784,3822,3808,0,0,4,,,,,,,0,0,0,-42.00,20.00,699.00,0.00,0.00,698.00,6,15.00,4.00,4.06,0.00,0.00,-4.00,0,,,100,100,19,2,0,0,0,2,0,,,,,0.0,0.0,-1
51.999754,-0.454895,1.50,2.10,0.50,0.40,1.50,1.50,1.44,0.81,4415,2021-08-11 17:28:10.757,2021-08-11 18:28:10.757,16,0,0,14.814,51.999751,-0.454899,0.00,0.00,-0.50,4.60,1.70,70.00,0,1,0,49,100,-11428,2108,14814,3161.00,3,P-GPS,1,1,0,0,224,0,0,1628702890757,3790,3784,3822,3808,0,0,4,,,,,,,0,0,0,-46.00,17.00,700.00,0.00,0.00,698.00,6,15.00,5.00,3.98,0.00,0.00,-5.00,0,,,100,100,19,2,0,0,0,2,0,,,,,0.0,0.0,-1
51.999754,-0.454895,1.60,2.10,0.60,0.39,1.60,1.60,1.44,0.81,4518,2021-08-11 17:28:10.860,2021-08-11 18:28:10.860,16,0,0,14.814,51.999751,-0.454899,0.00,0.00,-0.60,4.40,1.50,70.20,0,1,0,49,100,-11428,2108,14814,3161.00,3,P-GPS,1,1,0,0,235,0,0,1628702890860,3790,3784,3822,3808,0,0,4,,,,,,,0,0,0,-44.00,15.00,702.00,0.00,0.00,698.00,6,16.00,6.00,3.93,0.00,0.00,-6.00,0,,,100,100,19,2,0,0,0,2,0,,,,,0.0,0.0,-1
51.999754,-0.454895,1.60,2.20,0.70,0.39,1.60,1.60,1.44,0.81,4603,2021-08-11 17:28:10.945,2021-08-11 18:28:10.945,16,0,0,14.814,51.999751,-0.454899,0.00,0.00,-0.70,4.50,1.60,70.50,0,1,0,49,100,-11428,2108,14814,3161.00,3,P-GPS,1,1,0,1,232,0,0,1628702890945,3790,3784,3822,3808,0,0,4,,,,,,,0,0,0,-45.00,16.00,705.00,0.00,0.00,698.00,6,16.00,7.00,3.86,0.00,0.00,-7.00,0,,,100,100,19,2,0,0,0,2,0,,,,,0.0,0.0,-1
51.999754,-0.454895,1.70,2.30,0.71,0.37,1.70,1.70,1.44,0.81,4705,2021-08-11 17:28:11.048,2021-08-11 18:28:11.047,16,0,0,14.814,51.999751,-0.454899,0.00,-0.10,-0.90,4.70,1.40,70.70,0,1,0,49,100,-11428,2108,14814,3161.00,3,P-GPS,1,1,0,0,271,0,0,1628702891047,3790,3784,3822,3808,0,0,4,,,,,,,0,0,0,-47.00,14.00,707.00,0.00,0.00,698.00,6,17.00,7.07,3.69,0.00,-1.00,-9.00,0,,,100,100,19,2,0,0,0,2,0,,,,,0.0,0.0,-1
51.999754,-0.454896,1.80,2.40,0.91,0.35,1.80,1.80,1.44,0.81,4821,2021-08-11 17:28:11.164,2021-08-11 18:28:11.163,16,0,0,14.814,51.999751,-0.454899,0.00,-0.10,-0.90,4.40,1.30,70.80,0,1,0,49,100,-11428,2108,14814,3161.00,3,P-GPS,1,1,0,0,326,0,0,1628702891163,3790,3784,3822,3808,0,0,4,,,,,,,0,0,0,-44.00,13.00,708.00,0.00,0.00,698.00,6,18.00,9.06,3.51,0.00,-1.00,-9.00,0,,,100,100,19,2,0,0,0,2,0,,,,,0.0,0.0,-1
51.999754,-0.454896,1.90,2.40,0.91,0.34,1.90,1.90,1.44,0.81,4919,2021-08-11 17:28:11.262,2021-08-11 18:28:11.261,15,0,0,14.814,51.999751,-0.454899,0.00,-0.10,-0.90,3.90,1.30,70.80,0,1,0,49,100,-11428,2108,14814,3161.00,3,P-GPS,1,1,0,0,326,0,0,1628702891261,3790,3784,3822,3808,0,0,4,,,,,,,0,0,0,-39.00,13.00,708.00,0.00,0.00,699.00,6,19.00,9.06,3.36,0.00,-1.00,-9.00,0,,,100,100,19,2,0,0,0,2,0,,,,,0.0,0.0,-1
51.999754,-0.454896,2.10,2.70,1.30,0.31,2.10,2.10,1.44,0.81,5105,2021-08-11 17:28:11.448,2021-08-11 18:28:11.447,17,0,0,14.814,51.999751,-0.454899,0.00,-0.10,-1.30,2.60,1.50,70.80,0,1,0,49,100,-11428,2108,14814,3161.00,3,P-GPS,1,1,276,24,233,0,0,1628702891447,3790,3784,3822,3808,0,0,4,,,,,,,0,0,0,-26.00,15.00,708.00,0.00,0.00,699.00,6,21.00,13.04,3.13,0.00,-1.00,-13.00,0,,,100,100,19,2,0,0,0,2,0,,,,,0.0,0.0,-1
51.999754,-0.454897,2.30,2.70,1.20,0.30,2.30,2.30,1.44,0.81,5206,2021-08-11 17:28:11.548,2021-08-11 18:28:11.548,17,0,0,14.814,51.999751,-0.454899,0.00,0.00,-1.20,-6.00,1.10,70.70,0,1,0,49,100,-11428,2108,14814,3161.00,3,P-GPS,1,1,429,108,170,0,0,1628702891548,3790,3784,3822,3808,0,0,4,,,,,,,0,0,0,60.00,11.00,707.00,0.00,0.00,699.00,6,23.00,12.00,3.03,0.00,0.00,-12.00,0,,,100,100,19,2,0,0,0,2,0,,,,,0.0,0.0,-1
51.999754,-0.454897,2.40,2.70,0.90,0.30,2.40,2.40,1.44,0.81,5321,2021-08-11 17:28:11.664,2021-08-11 18:28:11.663,15,0,0,14.814,51.999751,-0.454899,0.00,0.00,-0.90,-14.60,1.80,70.50,0,1,0,49,100,-11428,2108,14814,3161.00,3,P-GPS,1,1,500,112,138,0,0,1628702891663,3790,3784,3822,3808,0,0,4,,,,,,,0,0,0,146.00,18.00,705.00,0.00,0.00,699.00,6,24.00,9.00,2.98,0.00,0.00,-9.00,0,,,100,100,19,2,0,0,0,2,0,,,,,0.0,0.0,-1
51.999754,-0.454897,2.50,2.70,0.77,0.32,2.50,2.50,1.44,0.81,5426,2021-08-11 17:28:11.769,2021-08-11 18:28:11.768,15,0,0,14.758,51.999751,-0.454899,0.10,0.30,-0.70,-19.70,3.00,70.20,0,1,0,49,100,-12139,2108,14758,3161.00,3,P-GPS,1,1,506,93,79,0,0,1628702891768,3790,3784,3822,3808,0,0,4,,,,,,,0,0,0,197.00,30.00,702.00,0.00,0.00,699.00,6,25.00,7.68,3.16,1.00,3.00,-7.00,0,,,100,100,19,2,0,0,0,2,0,,,,,0.0,0.0,-1
51.999754,-0.454895,2.60,2.70,0.99,0.44,2.60,2.60,1.44,0.81,5606,2021-08-11 17:28:11.948,2021-08-11 18:28:11.948,15,0,0,14.758,51.999751,-0.454899,0.30,0.90,-0.30,-22.10,3.50,70.00,0,1,0,49,100,-12139,2108,14758,3161.00,3,P-GPS,1,1,508,111,71,0,0,1628702891948,3790,3784,3822,3808,0,0,4,,,,,,,0,0,0,221.00,35.00,700.00,0.00,0.00,700.00,6,26.00,9.95,4.38,3.00,9.00,-3.00,0,,,100,100,19,2,0,0,0,2,0,,,,,0.0,0.0,-1
51.999755,-0.454893,2.60,0.00,1.16,0.55,2.60,2.60,1.44,0.81,5703,2021-08-11 17:28:12.046,2021-08-11 18:28:12.045,17,0,0,14.758,51.999751,-0.454899,0.30,1.10,-0.20,-21.40,3.80,69.90,0,1,0,49,100,-12139,2108,14758,3161.00,3,P-GPS,1,1,551,152,57,0,0,1628702892045,3790,3784,3822,3808,0,0,4,,,,,,,0,0,0,214.00,38.00,699.00,0.00,0.00,701.00,6,26.00,11.58,5.48,3.00,11.00,-2.00,0,,,100,100,19,2,0,0,0,2,0,,,,,0.0,0.0,-1
51.999755,-0.454892,2.60,0.00,1.56,0.66,2.60,2.60,1.56,0.81,5822,2021-08-11 17:28:12.164,2021-08-11 18:28:12.164,17,0,0,14.758,51.999751,-0.454899,0.60,1.80,-0.30,-21.70,4.10,69.80,0,1,0,49,100,-12139,2108,14758,3161.00,3,P-GPS,1,1,575,181,53,0,0,1628702892164,3790,3784,3822,3808,0,0,4,,,,,,,0,0,0,217.00,41.00,698.00,0.00,0.00,701.00,6,26.00,15.56,6.59,6.00,18.00,-3.00,0,,,100,100,19,2,0,0,0,2,0,,,,,0.0,0.0,-1
51.999756,-0.454889,2.70,0.00,1.92,0.87,2.70,2.70,1.92,0.87,5954,2021-08-11 17:28:12.296,2021-08-11 18:28:12.296,17,0,0,14.758,51.999751,-0.454899,0.60,1.80,-0.30,-22.10,5.20,69.60,0,1,0,49,100,-12139,2108,14758,3161.00,3,P-GPS,1,1,551,172,56,0,0,1628702892296,3790,3784,3822,3808,0,0,4,,,,,,,0,0,0,221.00,52.00,696.00,0.00,0.00,701.00,6,27.00,19.21,8.72,6.00,18.00,-3.00,0,,,100,100,19,2,0,0,0,2,0,,,,,0.0,0.0,-1
51.999757,-0.454886,2.70,0.00,2.29,1.08,2.70,2.70,2.29,1.08,6005,2021-08-11 17:28:12.347,2021-08-11 18:28:12.347,17,0,0,14.758,51.999751,-0.454899,0.60,2.20,-0.20,-21.80,5.70,69.60,0,1,0,49,100,-12139,2108,14758,3161.00,3,P-GPS,1,1,551,172,56,0,0,1628702892347,3790,3784,3822,3808,0,0,4,,,,,,,0,0,0,218.00,57.00,696.00,0.00,0.00,702.00,6,27.00,22.89,10.80,6.00,22.00,-2.00,0,,,100,100,19,2,0,0,0,2,0,,,,,0.0,0.0,-1
51.999758,-0.454879,2.70,0.00,2.91,1.61,2.70,2.70,2.91,1.61,6223,2021-08-11 17:28:12.565,2021-08-11 18:28:12.565,17,0,0,14.758,51.999751,-0.454899,0.80,2.80,0.00,-20.00,5.60,70.00,0,1,0,49,100,-12139,2108,14758,3161.00,3,P-GPS,1,1,564,186,70,0,0,1628702892565,3790,3784,3822,3808,0,0,4,,,,,,,0,0,0,200.00,56.00,700.00,0.00,0.00,703.00,6,27.00,29.12,16.09,8.00,28.00,0.00,0,,,100,100,19,2,0,0,0,2,0,,,,,0.0,0.0,-1
51.999760,-0.454869,2.70,0.00,3.42,2.28,2.70,2.70,3.42,2.28,6406,2021-08-11 17:28:12.748,2021-08-11 18:28:12.748,16,0,0,14.758,51.999751,-0.454899,0.90,3.30,-0.10,-18.20,6.00,70.60,0,1,0,49,100,-12139,2108,14758,3161.00,3,P-GPS,1,1,569,192,78,0,0,1628702892748,3790,3784,3822,3808,0,0,4,,,,,,,0,0,0,182.00,60.00,706.00,0.00,0.00,704.00,6,27.00,34.22,22.84,9.00,33.00,-1.00,0,,,100,100,19,2,0,0,0,2,0,,,,,0.0,0.0,-1
51.999761,-0.454863,2.70,0.00,3.74,2.72,2.70,2.70,3.74,2.72,6503,2021-08-11 17:28:12.845,2021-08-11 18:28:12.845,16,0,0,14.709,51.999751,-0.454899,1.00,3.60,-0.10,-17.80,6.10,70.70,0,1,0,49,100,-12718,2108,14709,3161.00,3,P-GPS,1,1,565,192,77,0,0,1628702892845,3790,3784,3822,3808,0,0,4,,,,,,,0,0,0,178.00,61.00,707.00,0.00,0.00,705.00,6,27.00,37.38,27.22,10.00,36.00,-1.00,0,,,100,100,19,2,0,0,0,2,0,,,,,0.0,0.0,-1
51.999762,-0.454857,2.70,0.00,3.93,3.11,2.70,2.70,3.93,3.11,6607,2021-08-11 17:28:12.950,2021-08-11 18:28:12.949,16,0,0,14.709,51.999751,-0.454899,1.00,3.80,-0.10,-17.60,6.20,70.60,0,1,0,49,100,-12718,2108,14709,3161.00,3,P-GPS,1,1,566,196,74,0,0,1628702892949,3790,3784,3822,3808,0,0,4,,,,,,,0,0,0,176.00,62.00,706.00,0.00,0.00,706.00,6,27.00,39.31,31.13,10.00,38.00,-1.00,0,,,100,100,19,2,0,0,0,2,0,,,,,0.0,0.0,-1
51.999763,-0.454850,2.70,0.00,4.22,3.60,2.70,2.70,4.22,3.60,6716,2021-08-11 17:28:13.058,2021-08-11 18:28:13.058,16,0,0,14.709,51.999751,-0.454899,1.00,4.10,0.00,-17.50,6.30,70.40,0,1,0,49,100,-12718,2108,14709,3161.00,3,P-GPS,1,1,568,199,63,0,0,1628702893058,3790,3784,3822,3808,0,0,4,,,,,,,0,0,0,175.00,63.00,704.00,0.00,0.00,707.00,6,27.00,42.20,35.98,10.00,41.00,0.00,0,,,100,100,19,2,0,0,0,2,0,,,,,0.0,0.0,-1
51.999764,-0.454844,2.70,0.00,4.51,4.04,2.70,2.70,4.51,4.04,6805,2021-08-11 17:28:13.148,2021-08-11 18:28:13.147,16,0,0,14.709,51.999751,-0.454899,1.00,4.40,0.00,-17.30,6.10,70.30,0,1,0,49,100,-12718,2108,14709,3161.00,3,P-GPS,1,1,559,201,71,0,0,1628702893147,3790,3784,3822,3808,0,0,4,,,,,,,0,0,0,173.00,61.00,703.00,0.00,0.00,708.00,6,27.00,45.12,40.39,10.00,44.00,0.00,0,,,100,100,19,2,0,0,0,2,0,,,,,0.0,0.0,-1
51.999765,-0.454836,2.70,0.00,4.73,4.58,2.70,2.70,4.73,4.58,6904,2021-08-11 17:28:13.246,2021-08-11 18:28:13.246,17,0,0,14.709,51.999751,-0.454899,1.10,4.80,-0.10,-16.70,6.10,70.60,0,1,0,49,100,-12718,2108,14709,3161.00,3,P-GPS,1,1,561,204,76,0,0,1628702893246,3632,3676,3717,3701,0,0,4,,,,,,,0,0,0,167.00,61.00,706.00,0.00,0.00,708.00,6,27.00,47.31,45.80,11.00,48.00,-1.00,0,,,100,100,19,2,0,0,0,2,0,,,,,0.0,0.0,-1
51.999766,-0.454829,2.70,0.00,4.93,5.08,2.70,2.70,4.93,5.08,7009,2021-08-11 17:28:13.351,2021-08-11 18:28:13.351,17,0,0,14.709,51.999751,-0.454899,1.10,4.80,-0.10,-16.10,6.00,70.90,0,1,0,49,100,-12718,2108,14709,3161.00,3,P-GPS,1,1,538,207,77,0,0,1628702893351,3632,3676,3717,3701,0,0,4,,,,,,,0,0,0,161.00,60.00,709.00,0.00,0.00,709.00,6,27.00,49.25,50.79,11.00,48.00,-1.00,0,,,100,100,19,2,0,0,0,2,0,,,,,0.0,0.0,-1
51.999767,-0.454821,2.70,0.00,5.12,5.67,2.70,2.70,5.12,5.67,7112,2021-08-11 17:28:13.454,2021-08-11 18:28:13.454,17,0,0,14.709,51.999751,-0.454899,1.10,5.00,0.00,-15.40,6.30,71.20,0,1,0,49,100,-12718,2108,14709,3161.00,3,P-GPS,1,1,532,213,73,0,0,1628702893454,3632,3676,3717,3701,0,0,4,,,,,,,0,0,0,154.00,63.00,712.00,0.00,0.00,710.00,6,27.00,51.20,56.68,11.00,50.00,0.00,0,,,100,100,19,2,0,0,0,2,0,,,,,0.0,0.0,-1
51.999768,-0.454813,2.70,0.00,5.32,6.20,2.70,2.70,5.32,6.20,7203,2021-08-11 17:28:13.545,2021-08-11 18:28:13.545,17,0,0,14.709,51.999751,-0.454899,1.10,5.20,0.00,-14.60,6.40,71.30,0,1,0,49,100,-12718,2108,14709,3161.00,3,P-GPS,1,1,531,212,72,0,0,1628702893545,3632,3676,3717,3701,0,0,4,,,,,,,0,0,0,146.00,64.00,713.00,0.00,0.00,710.00,6,27.00,53.15,61.99,11.00,52.00,0.00,0,,,100,100,19,2,0,0,0,2,0,,,,,0.0,0.0,-1
51.999769,-0.454804,2.70,0.00,5.51,6.82,2.70,2.70,5.51,6.82,7306,2021-08-11 17:28:13.648,2021-08-11 18:28:13.648,17,0,0,14.709,51.999751,-0.454899,1.10,5.40,-0.10,-14.10,6.40,71.70,0,1,0,49,100,-12718,2108,14709,3161.00,3,P-GPS,1,1,532,214,58,0,0,1628702893648,3632,3676,3717,3701,0,0,4,,,,,,,0,0,0,141.00,64.00,717.00,0.00,0.00,711.00,6,27.00,55.12,68.23,11.00,54.00,-1.00,0,,,100,100,19,2,0,0,0,2,0,,,,,0.0,0.0,-1
51.999770,-0.454796,2.70,0.00,5.69,7.39,2.70,2.70,5.69,7.39,7404,2021-08-11 17:28:13.747,2021-08-11 18:28:13.746,17,0,0,14.709,51.999751,-0.454899,1.00,5.60,0.00,-14.40,6.60,72.20,0,1,0,49,100,-12718,2108,14709,3161.00,3,P-GPS,1,1,531,223,53,0,0,1628702893746,3632,3676,3717,3701,0,0,4,,,,,,,0,0,0,144.00,66.00,722.00,0.00,0.00,712.00,6,27.00,56.89,73.89,10.00,56.00,0.00,0,,,100,100,19,2,0,0,0,2,0,,,,,0.0,0.0,-1
51.999771,-0.454787,2.70,0.00,5.89,8.03,2.70,2.70,5.89,8.03,7507,2021-08-11 17:28:13.850,2021-08-11 18:28:13.849,17,0,0,14.739,51.999751,-0.454899,1.00,5.80,0.00,-14.40,6.80,72.60,0,1,0,49,100,-10678,2108,14739,3161.00,3,P-GPS,1,1,528,229,56,0,0,1628702893849,3632,3676,3717,3701,0,0,4,,,,,,,0,0,0,144.00,68.00,726.00,0.00,0.00,714.00,6,27.00,58.86,80.32,10.00,58.00,0.00,0,,,100,100,19,2,0,0,0,2,0,,,,,0.0,0.0,-1
51.999772,-0.454778,2.70,0.00,5.98,8.65,2.70,2.70,5.98,8.65,7605,2021-08-11 17:28:13.949,2021-08-11 18:28:13.947,17,0,0,14.739,51.999751,-0.454899,1.00,5.90,0.00,-14.40,6.70,72.70,0,1,0,49,100,-10678,2108,14739,3161.00,3,P-GPS,1,1,524,232,55,0,0,1628702893947,3632,3676,3717,3701,0,0,4,,,,,,,0,0,0,144.00,67.00,727.00,0.00,0.00,715.00,6,27.00,59.84,86.48,10.00,59.00,0.00,0,,,100,100,19,2,0,0,0,2,0,,,,,0.0,0.0,-1
51.999773,-0.454768,2.70,0.00,6.18,9.31,2.70,2.70,6.18,9.31,7703,2021-08-11 17:28:14.046,2021-08-11 18:28:14.045,17,0,0,14.739,51.999751,-0.454899,1.00,6.10,0.00,-14.20,6.80,72.80,0,1,0,49,100,-10678,2108,14739,3161.00,3,P-GPS,1,1,525,233,46,0,0,1628702894045,3632,3676,3717,3701,0,0,4,,,,,,,0,0,0,142.00,68.00,728.00,0.00,0.00,717.00,6,27.00,61.81,93.12,10.00,61.00,0.00,0,,,100,100,19,2,0,0,0,2,0,,,,,0.0,0.0,-1
51.999773,-0.454759,2.70,0.00,6.36,9.94,2.70,2.70,6.36,9.94,7804,2021-08-11 17:28:14.147,2021-08-11 18:28:14.147,17,0,0,14.739,51.999751,-0.454899,0.90,6.30,0.00,-14.20,6.80,72.70,0,1,0,49,100,-10678,2108,14739,3161.00,3,P-GPS,1,1,516,240,47,0,0,1628702894146,3632,3676,3717,3701,0,0,4,,,,,,,0,0,0,142.00,68.00,727.00,0.00,0.00,719.00,6,27.00,63.64,99.43,9.00,63.00,0.00,0,,,100,100,19,2,0,0,0,2,0,,,,,0.0,0.0,-1
51.999774,-0.454749,2.70,0.00,6.46,10.65,2.70,2.70,6.46,10.65,7906,2021-08-11 17:28:14.248,2021-08-11 18:28:14.248,17,0,0,14.739,51.999751,-0.454899,0.90,6.60,-0.10,-13.80,6.80,72.60,0,1,0,49,100,-10678,2108,14739,3161.00,3,P-GPS,1,1,514,243,44,0,0,1628702894248,3632,3676,3717,3701,0,0,4,,,,,,,0,0,0,138.00,68.00,726.00,0.00,0.00,721.00,6,27.00,64.63,106.51,9.00,66.00,-1.00,0,,,100,100,19,2,0,0,0,2,0,,,,,0.0,0.0,-1
51.999776,-0.454729,2.70,0.00,6.76,12.02,2.70,2.70,6.76,12.02,8110,2021-08-11 17:28:14.452,2021-08-11 18:28:14.452,16,0,0,14.739,51.999751,-0.454899,0.90,6.70,0.00,-13.40,7.50,72.30,0,1,0,49,100,-10678,2108,14739,3161.00,3,P-GPS,1,1,518,258,35,0,0,1628702894452,3632,3676,3717,3701,0,0,4,,,,,,,0,0,0,134.00,75.00,723.00,0.00,0.00,723.00,6,27.00,67.60,120.22,9.00,67.00,0.00,0,,,100,100,19,2,0,0,0,2,0,,,,,0.0,0.0,-1
51.999777,-0.454719,2.70,0.00,6.86,12.72,2.70,2.70,6.86,12.72,8206,2021-08-11 17:28:14.549,2021-08-11 18:28:14.548,16,0,0,14.739,51.999751,-0.454899,0.90,6.80,0.00,-13.40,7.60,72.40,0,1,0,49,100,-10678,2108,14739,3161.00,3,P-GPS,1,1,516,265,49,0,0,1628702894548,3632,3676,3717,3701,0,0,4,,,,,,,0,0,0,134.00,76.00,724.00,0.00,0.00,724.00,6,27.00,68.59,127.19,9.00,68.00,0.00,0,,,100,100,19,2,0,0,0,2,0,,,,,0.0,0.0,-1
51.999777,-0.454708,2.70,0.00,6.95,13.45,2.70,2.70,6.95,13.45,8307,2021-08-11 17:28:14.650,2021-08-11 18:28:14.649,16,0,0,14.739,51.999751,-0.454899,0.80,6.90,0.00,-12.70,7.90,72.70,0,1,0,49,100,-10678,2108,14739,3161.00,3,P-GPS,1,1,513,266,45,0,0,1628702894649,3632,3676,3717,3701,0,0,4,,,,,,,0,0,0,127.00,79.00,727.00,0.00,0.00,724.00,6,27.00,69.46,134.52,8.00,69.00,0.00,0,,,100,100,19,2,0,0,0,2,0,,,,,0.0,0.0,-1
51.999778,-0.454698,2.60,0.00,7.14,14.16,2.70,2.70,7.14,14.16,8406,2021-08-11 17:28:14.748,2021-08-11 18:28:14.748,16,0,0,14.739,51.999751,-0.454899,0.70,7.10,0.10,-11.90,8.00,72.90,0,1,0,49,100,-10678,2108,14739,3161.00,3,P-GPS,1,1,513,272,47,0,0,1628702894748,3632,3676,3717,3701,0,0,4,,,,,,,0,0,0,119.00,80.00,729.00,0.00,0.00,725.00,6,26.00,71.35,141.63,7.00,71.00,1.00,0,,,100,100,19,2,0,0,0,2,0,,,,,0.0,0.0,-1
51.999779,-0.454687,2.60,0.00,7.23,14.92,2.70,2.70,7.23,14.92,8504,2021-08-11 17:28:14.847,2021-08-11 18:28:14.846,16,0,0,14.749,51.999751,-0.454899,0.70,7.20,0.00,-12.40,8.00,72.80,0,1,0,49,100,-11284,2108,14749,3161.00,3,P-GPS,1,1,513,274,45,0,0,1628702894846,3632,3676,3717,3701,0,0,4,,,,,,,0,0,0,124.00,80.00,728.00,0.00,0.00,726.00,6,26.00,72.34,149.20,7.00,72.00,0.00,0,,,100,100,19,2,0,0,0,2,0,,,,,0.0,0.0,-1
51.999779,-0.454676,2.60,0.00,7.33,15.66,2.70,2.70,7.33,15.66,8603,2021-08-11 17:28:14.945,2021-08-11 18:28:14.945,16,0,0,14.749,51.999751,-0.454899,0.70,7.30,0.00,-13.50,8.50,72.20,0,1,0,49,100,-11284,2108,14749,3161.00,3,P-GPS,1,1,511,272,44,0,0,1628702894945,3632,3676,3717,3701,0,0,4,,,,,,,0,0,0,135.00,85.00,722.00,0.00,0.00,727.00,6,26.00,73.33,156.60,7.00,73.00,0.00,0,,,100,100,19,2,0,0,0,2,0,,,,,0.0,0.0,-1
51.999780,-0.454665,2.60,0.00,7.42,16.43,2.70,2.70,7.42,16.43,8710,2021-08-11 17:28:15.052,2021-08-11 18:28:15.052,16,0,0,14.749,51.999751,-0.454899,0.60,7.40,0.00,-13.30,8.90,71.80,0,1,0,49,100,-11284,2108,14749,3161.00,3,P-GPS,1,1,513,271,40,0,0,1628702895052,3632,3676,3717,3701,0,0,4,,,,,,,0,0,0,133.00,89.00,718.00,0.00,0.00,728.00,6,26.00,74.24,164.31,6.00,74.00,0.00,0,,,100,100,19,2,0,0,0,2,0,,,,,0.0,0.0,-1
51.999780,-0.454653,2.60,0.00,7.52,17.19,2.70,2.70,7.52,17.19,8805,2021-08-11 17:28:15.148,2021-08-11 18:28:15.147,16,0,0,14.749,51.999751,-0.454899,0.60,7.50,0.00,-12.60,9.00,72.00,0,1,0,49,100,-11284,2108,14749,3161.00,3,P-GPS,1,1,508,272,47,0,0,1628702895147,3632,3676,3717,3701,0,0,4,,,,,,,0,0,0,126.00,90.00,720.00,0.00,0.00,728.00,6,26.00,75.24,171.87,6.00,75.00,0.00,0,,,100,100,19,2,0,0,0,2,0,,,,,0.0,0.0,-1
51.999781,-0.454642,2.50,0.00,7.72,17.99,2.70,2.70,7.72,17.99,8904,2021-08-11 17:28:15.246,2021-08-11 18:28:15.246,17,0,0,14.749,51.999751,-0.454899,0.50,7.70,0.00,-12.10,8.60,71.70,0,1,0,49,100,-11284,2108,14749,3161.00,3,P-GPS,1,1,508,272,49,0,0,1628702895246,3632,3676,3717,3701,0,0,4,,,,,,,0,0,0,121.00,86.00,717.00,0.00,0.00,728.00,6,25.00,77.16,179.94,5.00,77.00,0.00,0,,,100,100,19,2,0,0,0,2,0,,,,,0.0,0.0,-1
51.999781,-0.454630,2.60,0.00,7.82,18.78,2.70,2.70,7.82,18.78,9003,2021-08-11 17:28:15.345,2021-08-11 18:28:15.345,17,0,0,14.749,51.999751,-0.454899,0.50,7.90,0.00,-12.10,8.50,70.90,0,1,0,49,100,-11284,2108,14749,3161.00,3,P-GPS,1,1,507,272,43,0,0,1628702895345,3632,3676,3717,3701,0,0,4,,,,,,,0,0,0,121.00,85.00,709.00,0.00,0.00,728.00,6,26.00,78.16,187.75,5.00,79.00,0.00,0,,,100,100,19,2,0,0,0,2,0,,,,,0.0,0.0,-1
51.999782,-0.454618,2.60,0.00,7.92,19.58,2.70,2.70,7.92,19.58,9113,2021-08-11 17:28:15.455,2021-08-11 18:28:15.455,17,0,0,14.749,51.999751,-0.454899,0.50,7.90,0.00,-12.80,8.50,70.20,0,1,0,49,100,-11284,2108,14749,3161.00,3,P-GPS,1,1,503,271,43,0,0,1628702895455,3632,3676,3717,3701,0,0,4,,,,,,,0,0,0,128.00,85.00,702.00,0.00,0.00,729.00,6,26.00,79.16,195.80,5.00,79.00,0.00,0,,,100,100,19,2,0,0,0,2,0,,,,,0.0,0.0,-1
51.999782,-0.454607,2.60,0.00,8.01,20.39,2.70,2.70,8.01,20.39,9207,2021-08-11 17:28:15.551,2021-08-11 18:28:15.549,17,0,0,14.749,51.999751,-0.454899,0.40,8.00,0.00,-12.80,8.20,69.80,0,1,0,49,100,-11284,2108,14749,3161.00,3,P-GPS,1,1,507,268,46,0,0,1628702895549,3632,3676,3717,3701,0,0,4,,,,,,,0,0,0,128.00,82.00,698.00,0.00,0.00,728.00,6,26.00,80.10,203.90,4.00,80.00,0.00,0,,,100,100,19,2,0,0,0,2,0,,,,,0.0,0.0,-1
51.999783,-0.454594,2.60,0.00,8.12,21.23,2.70,2.70,8.12,21.23,9332,2021-08-11 17:28:15.675,2021-08-11 18:28:15.674,17,0,0,14.749,51.999751,-0.454899,0.50,8.10,0.00,-12.70,8.40,69.50,0,1,0,49,100,-11284,2108,14749,3161.00,3,P-GPS,1,1,487,259,18,0,0,1628702895674,3632,3676,3717,3701,0,0,4,,,,,,,0,0,0,127.00,84.00,695.00,0.00,0.00,728.00,6,26.00,81.15,212.27,5.00,81.00,0.00,0,,,100,100,19,2,0,0,0,2,0,,,,,0.0,0.0,-1
51.999783,-0.454582,2.60,0.00,8.21,22.05,2.70,2.70,8.21,22.05,9429,2021-08-11 17:28:15.772,2021-08-11 18:28:15.771,17,0,0,14.749,51.999751,-0.454899,0.40,8.20,0.00,-12.20,8.40,69.30,0,1,0,49,100,-11284,2108,14749,3161.00,3,P-GPS,1,1,486,261,14,0,0,1628702895771,3632,3676,3717,3701,0,0,4,,,,,,,0,0,0,122.00,84.00,693.00,0.00,0.00,728.00,6,26.00,82.10,220.47,4.00,82.00,0.00,0,,,100,100,19,2,0,0,0,2,0,,,,,0.0,0.0,-1
51.999784,-0.454558,2.60,0.00,8.41,23.74,2.70,2.70,8.41,23.74,9614,2021-08-11 17:28:15.956,2021-08-11 18:28:15.956,17,0,0,14.749,51.999751,-0.454899,0.40,8.40,-0.10,-11.70,8.10,69.40,0,1,0,49,100,-11284,2108,14749,3161.00,3,P-GPS,1,1,467,197,5,0,0,1628702895956,3632,3676,3717,3701,0,0,4,,,,,,,0,0,0,117.00,81.00,694.00,0.00,0.00,727.00,6,26.00,84.10,237.42,4.00,84.00,-1.00,0,,,100,100,19,2,0,0,0,2,0,,,,,0.0,0.0,-1
51.999784,-0.454545,2.60,0.00,8.41,24.60,2.70,2.70,8.41,24.60,9705,2021-08-11 17:28:16.048,2021-08-11 18:28:16.047,16,0,0,14.749,51.999751,-0.454899,0.40,8.40,0.00,-11.40,7.00,69.70,0,1,0,49,100,-11284,2108,14749,3161.00,3,P-GPS,1,1,465,170,2,0,0,1628702896047,3632,3676,3717,3701,0,0,4,,,,,,,0,0,0,114.00,70.00,697.00,0.00,0.00,727.00,6,26.00,84.10,246.04,4.00,84.00,0.00,0,,,100,100,19,2,0,0,0,2,0,,,,,0.0,0.0,-1
51.999785,-0.454533,2.60,0.00,8.51,25.46,2.70,2.70,8.51,25.46,9805,2021-08-11 17:28:16.148,2021-08-11 18:28:16.148,16,0,0,14.749,51.999751,-0.454899,0.40,8.50,0.00,-11.20,5.80,69.80,0,1,0,49,100,-11284,2108,14749,3161.00,3,P-GPS,1,1,426,91,0,0,0,1628702896147,3632,3676,3717,3701,0,0,4,,,,,,,0,0,0,112.00,58.00,698.00,0.00,0.00,726.00,6,26.00,85.09,254.61,4.00,85.00,0.00,0,,,100,100,19,2,0,0,0,2,0,,,,,0.0,0.0,-1
51.999785,-0.454520,2.60,0.00,8.51,26.33,2.70,2.70,8.51,26.33,9919,2021-08-11 17:28:16.261,2021-08-11 18:28:16.261,16,0,0,14.749,51.999751,-0.454899,0.50,8.50,0.00,-10.70,3.90,70.00,0,1,0,49,100,-11284,2108,14749,3161.00,3,P-GPS,1,1,388,1,0,0,0,1628702896261,3632,3676,3717,3701,0,0,4,,,,,,,0,0,0,107.00,39.00,700.00,0.00,0.00,726.00,6,26.00,85.15,263.34,5.00,85.00,0.00,0,,,100,100,19,2,0,0,0,2,0,,,,,0.0,0.0,-1
51.999786,-0.454494,2.60,0.00,8.52,28.07,2.70,2.70,8.52,28.07,10115,2021-08-11 17:28:16.458,2021-08-11 18:28:16.457,17,0,0,14.749,51.999751,-0.454899,0.70,8.50,0.00,-6.80,0.00,70.30,0,1,0,49,100,-11284,2108,14749,3161.00,3,P-GPS,1,1,210,0,0,0,0,1628702896457,3632,3676,3717,3701,0,0,4,,,,,,,0,0,0,68.00,0.00,703.00,0.00,0.00,725.00,6,26.00,85.21,280.69,7.00,85.00,0.00,0,,,100,100,19,2,0,0,0,2,0,,,,,0.0,0.0,-1
51.999787,-0.454482,2.60,0.00,8.53,28.93,2.70,2.70,8.53,28.93,10224,2021-08-11 17:28:16.566,2021-08-11 18:28:16.566,17,0,0,14.749,51.999751,-0.454899,0.70,8.50,0.00,-3.60,-0.60,70.70,0,1,0,49,100,-11284,2108,14749,3161.00,3,P-GPS,1,1,79,0,0,0,0,1628702896566,3632,3676,3717,3701,0,0,4,,,,,,,0,0,0,36.00,-6.00,707.00,0.00,0.00,724.00,6,26.00,85.29,289.29,7.00,85.00,0.00,0,,,100,100,19,2,0,0,0,2,0,,,,,0.0,0.0,-1
51.999787,-0.454469,2.60,0.00,8.33,29.80,2.70,2.70,8.53,29.80,10306,2021-08-11 17:28:16.649,2021-08-11 18:28:16.648,17,0,0,14.749,51.999751,-0.454899,0.70,8.30,0.00,2.20,-0.70,70.90,0,1,0,49,100,-11284,2108,14749,3161.00,3,P-GPS,1,1,0,0,0,0,0,1628702896648,3632,3676,3717,3701,0,0,4,,,,,,,0,0,0,-22.00,-7.00,709.00,0.00,0.00,723.00,6,26.00,83.29,297.99,7.00,83.00,0.00,0,,,100,100,19,2,0,0,0,2,0,,,,,0.0,0.0,-1
51.999788,-0.454457,2.60,0.00,8.13,30.64,2.70,2.70,8.53,30.64,10405,2021-08-11 17:28:16.748,2021-08-11 18:28:16.747,17,0,0,14.749,51.999751,-0.454899,0.70,8.10,-0.10,8.90,-0.60,71.20,0,1,0,49,100,-11284,2108,14749,3161.00,3,P-GPS,1,1,0,0,0,0,0,1628702896747,3632,3676,3717,3701,0,0,4,,,,,,,0,0,0,-89.00,-6.00,712.00,0.00,0.00,723.00,6,26.00,81.31,306.36,7.00,81.00,-1.00,0,,,100,100,19,2,0,0,0,2,0,,,,,0.0,0.0,-1
51.999788,-0.454445,2.60,0.00,7.82,31.45,2.70,2.70,8.53,31.45,10503,2021-08-11 17:28:16.845,2021-08-11 18:28:16.845,16,0,0,14.754,51.999751,-0.454899,0.60,7.80,0.00,14.70,-1.20,71.30,0,1,0,49,100,-10885,2108,14754,3161.00,3,P-GPS,1,1,0,0,0,0,0,1628702896845,3632,3676,3717,3701,0,0,4,,,,,,,0,0,0,-147.00,-12.00,713.00,0.00,0.00,723.00,6,26.00,78.23,314.52,6.00,78.00,0.00,0,,,100,100,19,2,0,0,0,2,0,,,,,0.0,0.0,-1
51.999789,-0.454434,2.60,0.00,7.42,32.22,2.70,2.70,8.53,32.22,10603,2021-08-11 17:28:16.945,2021-08-11 18:28:16.945,16,0,0,14.754,51.999751,-0.454899,0.60,7.40,0.00,23.10,-3.00,71.00,0,1,0,49,100,-10885,2108,14754,3161.00,3,P-GPS,1,1,0,0,0,0,0,1628702896945,3632,3676,3717,3701,0,0,4,,,,,,,0,0,0,-231.00,-30.00,710.00,0.00,0.00,723.00,6,26.00,74.24,322.21,6.00,74.00,0.00,0,,,100,100,19,2,0,0,0,2,0,,,,,0.0,0.0,-1
51.999789,-0.454424,2.60,0.00,6.92,32.95,2.70,2.70,8.53,32.95,10706,2021-08-11 17:28:17.049,2021-08-11 18:28:17.048,15,0,0,14.754,51.999751,-0.454899,0.50,6.90,0.00,28.70,-4.80,70.70,0,1,0,49,100,-10885,2108,14754,3161.00,3,P-GPS,1,1,0,0,0,0,0,1628702897048,3632,3676,3717,3701,0,0,4,,,,,,,0,0,0,-287.00,-48.00,707.00,0.00,0.00,723.00,6,26.00,69.18,329.47,5.00,69.00,0.00,0,,,100,100,19,2,0,0,0,2,0,,,,,0.0,0.0,-1
51.999790,-0.454414,2.50,0.00,6.22,33.61,2.70,2.70,8.53,33.61,10809,2021-08-11 17:28:17.151,2021-08-11 18:28:17.151,15,0,0,14.754,51.999751,-0.454899,0.50,6.20,0.00,31.00,-5.70,70.40,0,1,0,49,100,-10885,2108,14754,3161.00,3,P-GPS,1,1,0,0,0,0,0,1628702897151,3632,3676,3717,3701,0,0,4,,,,,,,0,0,0,-310.00,-57.00,704.00,0.00,0.00,723.00,6,25.00,62.20,336.08,5.00,62.00,0.00,0,,,100,100,19,2,0,0,0,2,0,,,,,0.0,0.0,-1
51.999791,-0.454405,2.50,0.00,5.72,34.20,2.70,2.70,8.53,34.20,10907,2021-08-11 17:28:17.250,2021-08-11 18:28:17.250,14,0,0,14.754,51.999751,-0.454899,0.50,5.70,0.00,30.40,-7.20,70.20,0,1,0,49,100,-10885,2108,14754,3161.00,3,P-GPS,1,1,0,0,0,0,0,1628702897249,3632,3676,3717,3701,0,0,4,,,,,,,0,0,0,-304.00,-72.00,702.00,0.00,0.00,723.00,6,25.00,57.22,341.99,5.00,57.00,0.00,0,,,100,100,19,2,0,0,0,2,0,,,,,0.0,0.0,-1
51.999791,-0.454397,2.50,0.00,5.02,34.78,2.70,2.70,8.53,34.78,11006,2021-08-11 17:28:17.349,2021-08-11 18:28:17.348,14,0,0,14.754,51.999751,-0.454899,0.50,5.00,0.00,28.80,-7.50,69.80,0,1,0,49,100,-10885,2108,14754,3161.00,3,P-GPS,1,1,0,0,0,0,0,1628702897348,3632,3676,3717,3701,0,0,4,,,,,,,0,0,0,-288.00,-75.00,698.00,0.00,0.00,723.00,6,25.00,50.25,347.84,5.00,50.00,0.00,0,,,100,100,19,2,0,0,0,2,0,,,,,0.0,0.0,-1
51.999792,-0.454391,2.50,0.00,4.64,35.22,2.70,2.70,8.53,35.22,11116,2021-08-11 17:28:17.458,2021-08-11 18:28:17.458,13,0,0,14.754,51.999751,-0.454899,0.60,4.10,0.00,26.70,-7.40,69.50,0,1,0,49,100,-10885,2108,14754,3161.00,3,P-GPS,1,1,0,0,0,0,0,1628702897458,3632,3676,3717,3701,0,0,4,,,,,,,0,0,0,-267.00,-74.00,695.00,0.00,0.00,724.00,6,25.00,46.40,352.21,6.00,41.00,0.00,0,,,100,100,19,2,0,0,0,2,0,,,,,0.0,0.0,-1
51.999792,-0.454384,2.60,0.00,4.14,35.67,2.70,2.70,8.53,35.67,11252,2021-08-11 17:28:17.595,2021-08-11 18:28:17.594,13,0,0,14.754,51.999751,-0.454899,0.60,4.10,0.00,24.70,-7.20,69.10,0,1,0,49,100,-10885,2108,14754,3161.00,3,P-GPS,1,1,0,0,0,0,0,1628702897594,3632,3676,3717,3701,0,0,4,,,,,,,0,0,0,-247.00,-72.00,691.00,0.00,0.00,724.00,6,26.00,41.44,356.65,6.00,41.00,0.00,0,,,100,100,19,2,0,0,0,2,0,,,,,0.0,0.0,-1
51.999793,-0.454379,2.60,0.00,3.87,36.03,2.70,2.70,8.53,36.03,11324,2021-08-11 17:28:17.666,2021-08-11 18:28:17.666,13,0,0,14.754,51.999751,-0.454899,0.70,3.80,-0.10,22.70,-6.70,68.60,0,1,0,49,100,-10885,2108,14754,3161.00,3,P-GPS,1,1,0,0,0,0,0,1628702897666,3632,3676,3717,3701,0,0,4,,,,,,,0,0,0,-227.00,-67.00,686.00,0.00,0.00,724.00,6,26.00,38.65,360.30,7.00,38.00,-1.00,0,,,100,100,19,2,0,0,0,2,0,,,,,0.0,0.0,-1
51.999794,-0.454374,2.70,0.00,3.47,36.40,2.70,2.70,8.53,36.40,11413,2021-08-11 17:28:17.756,2021-08-11 18:28:17.755,13,0,0,14.751,51.999751,-0.454899,0.70,3.40,0.00,21.30,-5.40,68.30,0,1,0,49,100,-10825,2108,14751,3161.00,3,P-GPS,1,1,0,0,0,0,0,1628702897755,3632,3676,3717,3701,0,0,4,,,,,,,0,0,0,-213.00,-54.00,683.00,0.00,0.00,724.00,6,27.00,34.71,363.97,7.00,34.00,0.00,0,,,100,100,19,2,0,0,0,2,0,,,,,0.0,0.0,-1
51.999795,-0.454371,2.70,0.00,3.20,36.62,2.70,2.70,8.53,36.62,11507,2021-08-11 17:28:17.849,2021-08-11 18:28:17.849,14,0,0,14.751,51.999751,-0.454899,0.80,3.10,0.00,20.10,-4.50,68.10,0,1,0,49,100,-10825,2108,14751,3161.00,3,P-GPS,1,1,0,0,0,0,0,1628702897849,3632,3676,3717,3701,0,0,4,,,,,,,0,0,0,-201.00,-45.00,681.00,0.00,0.00,723.00,6,27.00,32.02,366.21,8.00,31.00,0.00,0,,,100,100,19,2,0,0,0,2,0,,,,,0.0,0.0,-1
51.999796,-0.454367,2.70,0.00,2.91,36.92,2.70,2.70,8.53,36.92,11607,2021-08-11 17:28:17.950,2021-08-11 18:28:17.949,14,0,0,14.751,51.999751,-0.454899,0.80,2.80,0.00,19.40,-3.50,67.90,0,1,0,49,100,-10825,2108,14751,3161.00,3,P-GPS,1,1,0,0,0,0,0,1628702897949,3632,3676,3717,3701,0,0,4,,,,,,,0,0,0,-194.00,-35.00,679.00,0.00,0.00,722.00,6,27.00,29.12,369.25,8.00,28.00,0.00,0,,,100,100,19,2,0,0,0,2,0,,,,,0.0,0.0,-1
51.999797,-0.454364,2.70,0.00,2.53,37.10,2.70,2.70,8.53,37.10,11703,2021-08-11 17:28:18.045,2021-08-11 18:28:18.045,14,0,0,14.751,51.999751,-0.454899,0.80,2.40,0.00,19.00,-2.50,67.80,0,1,0,49,100,-10825,2108,14751,3161.00,3,P-GPS,1,1,0,0,0,0,0,1628702898045,3632,3676,3717,3701,0,0,4,,,,,,,0,0,0,-190.00,-25.00,678.00,0.00,0.00,721.00,6,27.00,25.30,370.98,8.00,24.00,0.00,0,,,100,100,19,2,0,0,0,2,0,,,,,0.0,0.0,-1
51.999798,-0.454361,2.80,0.00,2.25,37.34,2.80,2.80,8.53,37.34,11810,2021-08-11 17:28:18.152,2021-08-11 18:28:18.152,14,0,0,14.751,51.999751,-0.454899,0.80,2.10,0.00,18.70,-1.60,67.80,0,1,0,49,100,-10825,2108,14751,3161.00,3,P-GPS,1,1,0,0,0,0,0,1628702898152,3632,3676,3717,3701,0,0,4,,,,,,,0,0,0,-187.00,-16.00,678.00,0.00,0.00,719.00,6,28.00,22.47,373.37,8.00,21.00,0.00,0,,,100,100,19,2,0,0,0,2,0,,,,,0.0,0.0,-1
51.999799,-0.454360,2.80,0.00,1.97,37.43,2.80,2.80,8.53,37.43,11912,2021-08-11 17:28:18.255,2021-08-11 18:28:18.254,14,0,0,14.751,51.999751,-0.454899,0.80,1.80,0.00,18.20,-0.50,67.90,0,1,0,49,100,-10825,2108,14751,3161.00,3,P-GPS,1,1,0,0,0,0,0,1628702898254,3632,3676,3717,3701,0,0,4,,,,,,,0,0,0,-182.00,-5.00,679.00,0.00,0.00,717.00,6,28.00,19.70,374.32,8.00,18.00,0.00,0,,,100,100,19,2,0,0,0,2,0,,,,,0.0,0.0,-1
51.999800,-0.454358,2.80,0.00,1.66,37.59,2.80,2.80,8.53,37.59,12004,2021-08-11 17:28:18.347,2021-08-11 18:28:18.346,14,0,0,14.751,51.999751,-0.454899,0.70,1.50,0.00,17.80,0.60,68.00,0,1,0,49,100,-10825,2108,14751,3161.00,3,P-GPS,1,1,0,0,0,0,0,1628702898346,3632,3676,3717,3701,0,0,4,,,,,,,0,0,0,-178.00,6.00,680.00,0.00,0.00,715.00,6,28.00,16.55,375.95,7.00,15.00,0.00,0,,,100,100,19,2,0,0,0,2,0,,,,,0.0,0.0,-1
51.999801,-0.454357,2.80,0.00,1.39,37.65,2.80,2.80,8.53,37.65,12106,2021-08-11 17:28:18.449,2021-08-11 18:28:18.448,14,0,0,14.751,51.999751,-0.454899,0.70,1.20,0.00,17.10,1.90,68.10,0,1,0,49,100,-10825,2108,14751,3161.00,3,P-GPS,1,1,0,0,0,0,0,1628702898448,3632,3676,3717,3701,0,0,4,,,,,,,0,0,0,-171.00,19.00,681.00,0.00,0.00,713.00,6,28.00,13.89,376.45,7.00,12.00,0.00,0,,,100,100,19,2,0,0,0,2,0,,,,,0.0,0.0,-1
51.999801,-0.454355,2.80,0.00,1.22,37.77,2.80,2.80,8.53,37.77,12216,2021-08-11 17:28:18.559,2021-08-11 18:28:18.558,14,0,0,14.751,51.999751,-0.454899,0.60,0.80,0.00,15.50,2.90,68.30,0,1,0,49,100,-10825,2108,14751,3161.00,3,P-GPS,1,1,0,0,0,0,0,1628702898558,3632,3676,3717,3701,0,0,4,,,,,,,0,0,0,-155.00,29.00,683.00,0.00,0.00,711.00,6,28.00,12.21,377.68,6.00,8.00,0.00,0,,,100,100,19,2,0,0,0,2,0,,,,,0.0,0.0,-1
51.999802,-0.454356,2.80,0.00,1.00,37.74,2.80,2.80,8.53,37.77,12320,2021-08-11 17:28:18.662,2021-08-11 18:28:18.662,14,0,0,14.751,51.999751,-0.454899,0.60,0.80,0.00,13.50,3.50,68.20,0,1,0,49,100,-10825,2108,14751,3161.00,3,P-GPS,1,1,0,0,0,0,0,1628702898662,3632,3676,3717,3701,0,0,4,,,,,,,0,0,0,-135.00,35.00,682.00,0.00,0.00,707.00,6,28.00,10.00,377.35,6.00,8.00,0.00,0,,,100,100,19,2,0,0,0,2,0,,,,,0.0,0.0,-1
51.999803,-0.454355,2.80,0.00,0.92,37.82,2.80,2.80,8.53,37.82,12408,2021-08-11 17:28:18.751,2021-08-11 18:28:18.750,14,0,0,14.751,51.999751,-0.454899,0.60,0.70,0.00,11.30,4.10,68.20,0,1,0,49,100,-10825,2108,14751,3161.00,3,P-GPS,1,1,0,0,0,0,0,1628702898750,3632,3676,3717,3701,0,0,4,,,,,,,0,0,0,-113.00,41.00,682.00,0.00,0.00,707.00,6,28.00,9.22,378.19,6.00,7.00,0.00,0,,,100,100,19,2,0,0,0,2,0,,,,,0.0,0.0,-1
51.999803,-0.454355,2.80,0.00,0.78,37.81,2.80,2.80,8.53,37.82,12504,2021-08-11 17:28:18.847,2021-08-11 18:28:18.846,15,0,0,14.742,51.999751,-0.454899,0.60,0.50,0.00,9.40,4.40,68.10,0,1,0,49,100,-10858,2108,14742,3161.00,3,P-GPS,1,1,0,0,0,0,0,1628702898846,3632,3676,3717,3701,0,0,4,,,,,,,0,0,0,-94.00,44.00,681.00,0.00,0.00,705.00,6,28.00,7.81,378.08,6.00,5.00,0.00,0,,,100,100,19,2,0,0,0,2,0,,,,,0.0,0.0,-1
51.999804,-0.454355,2.80,0.00,0.64,37.83,2.80,2.80,8.53,37.83,12606,2021-08-11 17:28:18.949,2021-08-11 18:28:18.948,15,0,0,14.742,51.999751,-0.454899,0.50,0.40,0.00,7.60,5.10,68.10,0,1,0,49,100,-10858,2108,14742,3161.00,3,P-GPS,1,1,0,0,0,0,0,1628702898948,3632,3676,3717,3701,0,0,4,,,,,,,0,0,0,-76.00,51.00,681.00,0.00,0.00,703.00,6,28.00,6.40,378.26,5.00,4.00,0.00,0,,,100,100,19,2,0,0,0,2,0,,,,,0.0,0.0,-1
51.999804,-0.454356,2.80,0.00,0.58,37.80,2.80,2.80,8.53,37.83,12709,2021-08-11 17:28:19.051,2021-08-11 18:28:19.051,15,0,0,14.742,51.999751,-0.454899,0.50,0.30,0.00,6.40,5.40,68.10,0,1,0,49,100,-10858,2108,14742,3161.00,3,P-GPS,1,1,0,0,0,0,0,1628702899051,3632,3676,3717,3701,0,0,4,,,,,,,0,0,0,-64.00,54.00,681.00,0.00,0.00,702.00,6,28.00,5.83,377.97,5.00,3.00,0.00,0,,,100,100,19,2,0,0,0,2,0,,,,,0.0,0.0,-1
51.999805,-0.454355,2.80,0.00,0.58,37.84,2.80,2.80,8.53,37.84,12806,2021-08-11 17:28:19.148,2021-08-11 18:28:19.148,15,0,0,14.742,51.999751,-0.454899,0.50,0.30,0.00,5.30,5.50,68.20,0,1,0,49,100,-10858,2108,14742,3161.00,3,P-GPS,1,1,0,0,0,0,0,1628702899148,3632,3676,3717,3701,0,0,4,,,,,,,0,0,0,-53.00,55.00,682.00,0.00,0.00,701.00,6,28.00,5.83,378.42,5.00,3.00,0.00,0,,,100,100,19,2,0,0,0,2,0,,,,,0.0,0.0,-1
51.999805,-0.454356,2.90,0.00,0.45,37.78,2.90,2.90,8.53,37.84,12906,2021-08-11 17:28:19.248,2021-08-11 18:28:19.248,15,0,0,14.742,51.999751,-0.454899,0.40,0.20,0.00,4.30,5.60,68.20,0,1,0,49,100,-10858,2108,14742,3161.00,3,P-GPS,1,1,0,0,0,0,0,1628702899248,3632,3676,3717,3701,0,0,4,,,,,,,0,0,0,-43.00,56.00,682.00,0.00,0.00,700.00,6,29.00,4.47,377.80,4.00,2.00,0.00,0,,,100,100,19,2,0,0,0,2,0,,,,,0.0,0.0,-1
51.999806,-0.454356,2.90,0.00,0.50,37.82,2.90,2.90,8.53,37.84,13003,2021-08-11 17:28:19.346,2021-08-11 18:28:19.345,15,0,0,14.742,51.999751,-0.454899,0.40,0.30,0.00,3.60,5.60,68.30,0,1,0,49,100,-10858,2108,14742,3161.00,3,P-GPS,1,1,0,0,0,0,0,1628702899345,3632,3676,3717,3701,0,0,4,,,,,,,0,0,0,-36.00,56.00,683.00,0.00,0.00,699.00,6,29.00,5.00,378.17,4.00,3.00,0.00,0,,,100,100,19,2,0,0,0,2,0,,,,,0.0,0.0,-1
51.999806,-0.454356,2.80,0.00,0.45,37.81,2.90,2.90,8.53,37.84,13103,2021-08-11 17:28:19.445,2021-08-11 18:28:19.445,15,0,0,14.742,51.999751,-0.454899,0.40,0.20,0.00,3.30,5.70,68.40,0,1,0,49,100,-10858,2108,14742,3161.00,3,P-GPS,1,1,0,0,0,0,0,1628702899445,3632,3676,3717,3701,0,0,4,,,,,,,0,0,0,-33.00,57.00,684.00,0.00,0.00,698.00,6,28.00,4.47,378.08,4.00,2.00,0.00,0,,,100,100,19,2,0,0,0,2,0,,,,,0.0,0.0,-1
51.999806,-0.454356,2.80,0.00,0.50,37.79,2.90,2.90,8.53,37.84,13211,2021-08-11 17:28:19.553,2021-08-11 18:28:19.553,15,0,0,14.742,51.999751,-0.454899,0.40,0.30,0.00,3.50,5.60,68.30,0,1,0,49,100,-10858,2108,14742,3161.00,3,P-GPS,1,1,0,0,0,0,0,1628702899553,3632,3676,3717,3701,0,0,4,,,,,,,0,0,0,-35.00,56.00,683.00,0.00,0.00,698.00,6,28.00,5.00,377.90,4.00,3.00,0.00,0,,,100,100,19,2,0,0,0,2,0,,,,,0.0,0.0,-1
51.999807,-0.454356,2.90,0.00,0.36,37.81,2.90,2.90,8.53,37.84,13314,2021-08-11 17:28:19.657,2021-08-11 18:28:19.656,15,0,0,14.683,51.999751,-0.454899,0.30,0.30,0.00,3.80,5.10,68.40,0,1,0,49,100,-11933,2108,14683,3161.00,3,P-GPS,1,1,0,0,0,0,0,1628702899656,3632,3676,3717,3701,0,0,4,,,,,,,0,0,0,-38.00,51.00,684.00,0.00,0.00,697.00,6,29.00,3.61,378.08,3.00,3.00,0.00,0,,,100,100,19,2,0,0,0,2,0,,,,,0.0,0.0,-1
51.999807,-0.454356,2.90,0.00,0.42,37.85,2.90,2.90,8.53,37.85,13417,2021-08-11 17:28:19.759,2021-08-11 18:28:19.759,15,0,0,14.683,51.999751,-0.454899,0.30,0.30,0.00,3.80,4.70,68.50,0,1,0,49,100,-11933,2108,14683,3161.00,3,P-GPS,1,1,0,0,0,0,0,1628702899759,3632,3676,3717,3701,0,0,4,,,,,,,0,0,0,-38.00,47.00,685.00,0.00,0.00,697.00,6,29.00,4.24,378.46,3.00,3.00,0.00,0,,,100,100,19,2,0,0,0,2,0,,,,,0.0,0.0,-1
51.999807,-0.454356,2.90,0.00,0.42,37.83,2.90,2.90,8.53,37.85,13505,2021-08-11 17:28:19.847,2021-08-11 18:28:19.847,15,0,0,14.683,51.999751,-0.454899,0.30,0.30,0.00,4.20,4.50,68.60,0,1,0,49,100,-11933,2108,14683,3161.00,3,P-GPS,1,1,0,0,0,0,0,1628702899847,3632,3676,3717,3701,0,0,4,,,,,,,0,0,0,-42.00,45.00,686.00,0.00,0.00,697.00,6,29.00,4.24,378.27,3.00,3.00,0.00,0,,,100,100,19,2,0,0,0,2,0,,,,,0.0,0.0,-1
51.999807,-0.454355,2.90,0.00,0.36,37.86,2.90,2.90,8.53,37.86,13605,2021-08-11 17:28:19.947,2021-08-11 18:28:19.947,15,0,0,14.683,51.999751,-0.454899,0.20,0.30,0.00,3.80,4.50,68.80,0,1,0,49,100,-11933,2108,14683,3161.00,3,P-GPS,1,1,0,0,0,0,0,1628702899947,3632,3676,3717,3701,0,0,4,,,,,,,0,0,0,-38.00,45.00,688.00,0.00,0.00,696.00,6,29.00,3.61,378.64,2.00,3.00,0.00,0,,,100,100,19,2,0,0,0,2,0,,,,,0.0,0.0,-1
51.999807,-0.454355,2.90,0.00,0.36,37.90,2.90,2.90,8.53,37.90,13709,2021-08-11 17:28:20.052,2021-08-11 18:28:20.051,15,0,0,14.683,51.999751,-0.454899,0.20,0.30,0.00,3.50,4.10,69.30,0,1,0,49,100,-11933,2108,14683,3161.00,3,P-GPS,1,1,0,0,0,0,0,1628702900051,3632,3676,3717,3701,0,0,4,,,,,,,0,0,0,-35.00,41.00,693.00,0.00,0.00,696.00,6,29.00,3.61,378.97,2.00,3.00,0.00,0,,,100,100,19,2,0,0,0,2,0,,,,,0.0,0.0,-1
51.999807,-0.454355,3.00,0.00,0.36,37.91,3.00,3.00,8.53,37.91,13805,2021-08-11 17:28:20.147,2021-08-11 18:28:20.147,15,0,0,14.683,51.999751,-0.454899,0.20,0.30,0.00,3.10,2.80,69.50,0,1,0,49,100,-11933,2108,14683,3161.00,3,P-GPS,1,1,0,0,0,0,0,1628702900147,3632,3676,3717,3701,0,0,4,,,,,,,0,0,0,-31.00,28.00,695.00,0.00,0.00,696.00,6,30.00,3.61,379.10,2.00,3.00,0.00,0,,,100,100,19,2,0,0,0,2,0,,,,,0.0,0.0,-1
51.999807,-0.454354,3.00,0.00,0.32,37.96,3.00,3.00,8.53,37.96,13904,2021-08-11 17:28:20.246,2021-08-11 18:28:20.246,15,0,0,14.683,51.999751,-0.454899,0.10,0.30,0.00,1.80,2.70,69.70,0,1,0,49,100,-11933,2108,14683,3161.00,3,P-GPS,1,1,0,0,0,0,0,1628702900246,3632,3676,3717,3701,0,0,4,,,,,,,0,0,0,-18.00,27.00,697.00,0.00,0.00,696.00,6,30.00,3.16,379.56,1.00,3.00,0.00,0,,,100,100,19,2,0,0,0,2,0,,,,,0.0,0.0,-1
51.999807,-0.454354,2.90,0.00,0.45,38.00,3.00,3.00,8.53,38.00,14007,2021-08-11 17:28:20.350,2021-08-11 18:28:20.349,15,0,0,14.683,51.999751,-0.454899,0.20,0.40,0.00,1.60,1.70,69.50,0,1,0,49,100,-11933,2108,14683,3161.00,3,P-GPS,1,1,0,0,0,0,0,1628702900349,3632,3676,3717,3701,0,0,4,,,,,,,0,0,0,-16.00,17.00,695.00,0.00,0.00,696.00,6,29.00,4.47,379.99,2.00,4.00,0.00,0,,,100,100,19,2,0,0,0,2,0,,,,,0.0,0.0,-1
51.999807,-0.454353,2.90,0.00,0.45,38.04,3.00,3.00,8.53,38.04,14114,2021-08-11 17:28:20.457,2021-08-11 18:28:20.456,16,0,0,14.683,51.999751,-0.454899,0.20,0.40,0.00,1.90,1.30,69.20,0,1,0,49,100,-11933,2108,14683,3161.00,3,P-GPS,1,1,0,0,0,0,0,1628702900456,3632,3676,3717,3701,0,0,4,,,,,,,0,0,0,-19.00,13.00,692.00,0.00,0.00,696.00,6,29.00,4.47,380.44,2.00,4.00,0.00,0,,,100,100,19,2,0,0,0,2,0,,,,,0.0,0.0,-1
51.999808,-0.454352,2.90,0.00,0.45,38.09,3.00,3.00,8.53,38.09,14204,2021-08-11 17:28:20.546,2021-08-11 18:28:20.546,16,0,0,14.683,51.999751,-0.454899,0.20,0.40,0.00,2.40,1.30,68.90,0,1,0,49,100,-11933,2108,14683,3161.00,3,P-GPS,1,1,0,0,0,0,0,1628702900546,3632,3676,3717,3701,0,0,4,,,,,,,0,0,0,-24.00,13.00,689.00,0.00,0.00,696.00,6,29.00,4.47,380.92,2.00,4.00,0.00,0,,,100,100,19,2,0,0,0,2,0,,,,,0.0,0.0,-1
51.999808,-0.454351,2.90,0.00,0.45,38.14,3.00,3.00,8.53,38.14,14307,2021-08-11 17:28:20.650,2021-08-11 18:28:20.649,16,0,0,14.683,51.999751,-0.454899,0.20,0.40,0.00,2.60,1.90,68.60,0,1,0,49,100,-11933,2108,14683,3161.00,3,P-GPS,1,1,0,0,0,0,0,1628702900649,3632,3676,3717,3701,0,0,4,,,,,,,0,0,0,-26.00,19.00,686.00,0.00,0.00,696.00,6,29.00,4.47,381.43,2.00,4.00,0.00,0,,,100,100,19,2,0,0,0,2,0,,,,,0.0,0.0,-1
51.999808,-0.454351,2.80,0.00,0.45,38.20,3.00,3.00,8.53,38.20,14410,2021-08-11 17:28:20.752,2021-08-11 18:28:20.752,16,0,0,14.712,51.999751,-0.454899,0.20,0.50,0.00,3.20,2.10,68.60,0,1,0,49,100,-10955,2108,14712,3161.00,3,P-GPS,1,1,0,0,0,0,0,1628702900752,3632,3676,3717,3701,0,0,4,,,,,,,0,0,0,-32.00,21.00,686.00,0.00,0.00,696.00,6,28.00,4.47,381.99,2.00,5.00,0.00,0,,,100,100,19,2,0,0,0,2,0,,,,,0.0,0.0,-1
51.999808,-0.454350,2.80,0.00,0.54,38.26,3.00,3.00,8.53,38.26,14518,2021-08-11 17:28:20.861,2021-08-11 18:28:20.860,16,0,0,14.712,51.999751,-0.454899,0.20,0.50,0.00,3.40,2.50,68.60,0,1,0,49,100,-10955,2108,14712,3161.00,3,P-GPS,1,1,0,0,0,0,0,1628702900860,3632,3676,3717,3701,0,0,4,,,,,,,0,0,0,-34.00,25.00,686.00,0.00,0.00,695.00,6,28.00,5.39,382.58,2.00,5.00,0.00,0,,,100,100,19,2,0,0,0,2,0,,,,,0.0,0.0,-1
51.999808,-0.454349,2.80,0.00,0.54,38.31,3.00,3.00,8.53,38.31,14610,2021-08-11 17:28:20.952,2021-08-11 18:28:20.952,16,0,0,14.712,51.999751,-0.454899,0.20,0.50,0.00,4.80,2.90,68.40,0,1,0,49,100,-10955,2108,14712,3161.00,3,P-GPS,1,1,0,0,0,0,0,1628702900952,3632,3676,3717,3701,0,0,4,,,,,,,0,0,0,-48.00,29.00,684.00,0.00,0.00,695.00,6,28.00,5.39,383.14,2.00,5.00,0.00,0,,,100,100,19,2,0,0,0,2,0,,,,,0.0,0.0,-1
51.999808,-0.454348,2.80,0.00,0.54,38.38,3.00,3.00,8.53,38.38,14706,2021-08-11 17:28:21.048,2021-08-11 18:28:21.048,16,0,0,14.712,51.999751,-0.454899,0.20,0.50,0.00,5.90,2.80,68.50,0,1,0,49,100,-10955,2108,14712,3161.00,3,P-GPS,1,1,0,0,0,0,0,1628702901048,3632,3676,3717,3701,0,0,4,,,,,,,0,0,0,-59.00,28.00,685.00,0.00,0.00,695.00,6,28.00,5.39,383.75,2.00,5.00,0.00,0,,,100,100,19,2,0,0,0,2,0,,,,,0.0,0.0,-1
51.999808,-0.454347,2.80,0.00,0.54,38.44,3.00,3.00,8.53,38.44,14814,2021-08-11 17:28:21.156,2021-08-11 18:28:21.156,16,0,0,14.712,51.999751,-0.454899,0.20,0.50,0.00,6.30,2.70,68.70,0,1,0,49,100,-10955,2108,14712,3161.00,3,P-GPS,1,1,0,0,0,0,0,1628702901156,3632,3676,3717,3701,0,0,4,,,,,,,0,0,0,-63.00,27.00,687.00,0.00,0.00,695.00,6,28.00,5.39,384.37,2.00,5.00,0.00,0,,,100,100,19,2,0,0,0,2,0,,,,,0.0,0.0,-1
51.999809,-0.454346,2.80,0.00,0.51,38.50,3.00,3.00,8.53,38.50,14909,2021-08-11 17:28:21.251,2021-08-11 18:28:21.251,16,0,0,14.712,51.999751,-0.454899,0.10,0.50,0.00,6.50,2.90,68.90,0,1,0,49,100,-10955,2108,14712,3161.00,3,P-GPS,1,1,0,0,0,0,0,1628702901251,3632,3676,3717,3701,0,0,4,,,,,,,0,0,0,-65.00,29.00,689.00,0.00,0.00,694.00,6,28.00,5.10,385.00,1.00,5.00,0.00,0,,,100,100,19,2,0,0,0,2,0,,,,,0.0,0.0,-1
51.999809,-0.454346,2.80,0.00,0.51,38.56,3.00,3.00,8.53,38.56,15014,2021-08-11 17:28:21.356,2021-08-11 18:28:21.356,16,0,0,14.712,51.999751,-0.454899,0.10,0.50,0.00,6.40,2.60,69.20,0,1,0,49,100,-10955,2108,14712,3161.00,3,P-GPS,1,1,0,0,0,0,0,1628702901356,3632,3676,3717,3701,0,0,4,,,,,,,0,0,0,-64.00,26.00,692.00,0.00,0.00,694.00,6,28.00,5.10,385.58,1.00,5.00,0.00,0,,,100,100,19,2,0,0,0,2,0,,,,,0.0,0.0,-1
51.999809,-0.454344,2.80,0.00,0.51,38.68,3.00,3.00,8.53,38.68,15126,2021-08-11 17:28:21.468,2021-08-11 18:28:21.468,16,0,0,14.712,51.999751,-0.454899,0.10,0.50,0.00,6.80,2.70,69.70,0,1,0,49,100,-10955,2108,14712,3161.00,3,P-GPS,1,1,0,0,0,0,0,1628702901468,3632,3676,3717,3701,0,0,4,,,,,,,0,0,0,-68.00,27.00,697.00,0.00,0.00,694.00,6,28.00,5.10,386.84,1.00,5.00,0.00,0,,,100,100,19,2,0,0,0,2,0,,,,,0.0,0.0,-1
